[
    {
        "city": "Адыгейск",
        "lat": "44.878414",
        "lon": "39.190289"
    },
    {
        "city": "Майкоп",
        "lat": "44.6098268",
        "lon": "40.1006606"
    },
    {
        "city": "Горно-Алтайск",
        "lat": "51.9581028",
        "lon": "85.9603235"
    },
    {
        "city": "Алейск",
        "lat": "52.4922513",
        "lon": "82.7793606"
    },
    {
        "city": "Барнаул",
        "lat": "53.3479968",
        "lon": "83.7798064"
    },
    {
        "city": "Белокуриха",
        "lat": "51.996152",
        "lon": "84.9839604"
    },
    {
        "city": "Бийск",
        "lat": "52.5393864",
        "lon": "85.2138453"
    },
    {
        "city": "Горняк",
        "lat": "50.9979622",
        "lon": "81.4643358"
    },
    {
        "city": "Заринск",
        "lat": "53.7063476",
        "lon": "84.9315081"
    },
    {
        "city": "Змеиногорск",
        "lat": "51.1581094",
        "lon": "82.1872547"
    },
    {
        "city": "Камень-на-Оби",
        "lat": "53.7913974",
        "lon": "81.3545053"
    },
    {
        "city": "Новоалтайск",
        "lat": "53.4119759",
        "lon": "83.9311069"
    },
    {
        "city": "Рубцовск",
        "lat": "51.5012067",
        "lon": "81.2078695"
    },
    {
        "city": "Славгород",
        "lat": "52.999463",
        "lon": "78.6459232"
    },
    {
        "city": "Яровое",
        "lat": "52.9252146",
        "lon": "78.5729775"
    },
    {
        "city": "Белогорск",
        "lat": "50.9213415",
        "lon": "128.4739471"
    },
    {
        "city": "Благовещенск",
        "lat": "50.290659",
        "lon": "127.527198"
    },
    {
        "city": "Завитинск",
        "lat": "50.1064111",
        "lon": "129.4391813"
    },
    {
        "city": "Зея",
        "lat": "53.7340088",
        "lon": "127.265787"
    },
    {
        "city": "Райчихинск",
        "lat": "49.7941615",
        "lon": "129.4112492"
    },
    {
        "city": "Свободный",
        "lat": "51.3614103",
        "lon": "128.1219729"
    },
    {
        "city": "Сковородино",
        "lat": "53.9871095",
        "lon": "123.9437205"
    },
    {
        "city": "Тында",
        "lat": "55.1546441",
        "lon": "124.7468904"
    },
    {
        "city": "Циолковский",
        "lat": "51.762481",
        "lon": "128.1219846"
    },
    {
        "city": "Шимановск",
        "lat": "52.0051886",
        "lon": "127.7005458"
    },
    {
        "city": "Архангельск",
        "lat": "64.5394289",
        "lon": "40.5169606"
    },
    {
        "city": "Вельск",
        "lat": "61.066",
        "lon": "42.1032789"
    },
    {
        "city": "Каргополь",
        "lat": "61.5009724",
        "lon": "38.9636966"
    },
    {
        "city": "Коряжма",
        "lat": "61.2885948",
        "lon": "47.1003015"
    },
    {
        "city": "Котлас",
        "lat": "61.2528972",
        "lon": "46.633242"
    },
    {
        "city": "Мезень",
        "lat": "65.8398078",
        "lon": "44.2532273"
    },
    {
        "city": "Мирный",
        "lat": "62.7645265",
        "lon": "40.3360076"
    },
    {
        "city": "Новодвинск",
        "lat": "64.4136851",
        "lon": "40.8208143"
    },
    {
        "city": "Няндома",
        "lat": "61.6654674",
        "lon": "40.2062947"
    },
    {
        "city": "Онега",
        "lat": "63.9162928",
        "lon": "38.0805031"
    },
    {
        "city": "Северодвинск",
        "lat": "64.5625385",
        "lon": "39.8180934"
    },
    {
        "city": "Сольвычегодск",
        "lat": "61.3319616",
        "lon": "46.920441"
    },
    {
        "city": "Шенкурск",
        "lat": "62.1057272",
        "lon": "42.8996973"
    },
    {
        "city": "Астрахань",
        "lat": "46.3655652",
        "lon": "48.0559236"
    },
    {
        "city": "Ахтубинск",
        "lat": "48.2752034",
        "lon": "46.1906462"
    },
    {
        "city": "Знаменск",
        "lat": "48.5866291",
        "lon": "45.7368019"
    },
    {
        "city": "Камызяк",
        "lat": "46.110579",
        "lon": "48.07333"
    },
    {
        "city": "Нариманов",
        "lat": "46.6916565",
        "lon": "47.8502476"
    },
    {
        "city": "Харабали",
        "lat": "47.408999",
        "lon": "47.2525345"
    },
    {
        "city": "Агидель",
        "lat": "55.8999056",
        "lon": "53.9220144"
    },
    {
        "city": "Баймак",
        "lat": "52.5912896",
        "lon": "58.3110998"
    },
    {
        "city": "Белебей",
        "lat": "54.1034582",
        "lon": "54.1113129"
    },
    {
        "city": "Белорецк",
        "lat": "53.9676488",
        "lon": "58.4100419"
    },
    {
        "city": "Бирск",
        "lat": "55.4155753",
        "lon": "55.5582214"
    },
    {
        "city": "Благовещенск",
        "lat": "55.0499867",
        "lon": "55.9553186"
    },
    {
        "city": "Давлеканово",
        "lat": "54.2226707",
        "lon": "55.0312373"
    },
    {
        "city": "Дюртюли",
        "lat": "55.4848318",
        "lon": "54.8524765"
    },
    {
        "city": "Ишимбай",
        "lat": "53.4545764",
        "lon": "56.0438751"
    },
    {
        "city": "Кумертау",
        "lat": "52.7564939",
        "lon": "55.7970197"
    },
    {
        "city": "Межгорье",
        "lat": "54.2397689",
        "lon": "57.9614547"
    },
    {
        "city": "Мелеуз",
        "lat": "52.9589532",
        "lon": "55.9282838"
    },
    {
        "city": "Нефтекамск",
        "lat": "56.088377",
        "lon": "54.2483061"
    },
    {
        "city": "Октябрьский",
        "lat": "54.4815311",
        "lon": "53.4655972"
    },
    {
        "city": "Салават",
        "lat": "53.3616974",
        "lon": "55.9245224"
    },
    {
        "city": "Сибай",
        "lat": "52.7204651",
        "lon": "58.6663783"
    },
    {
        "city": "Стерлитамак",
        "lat": "53.6300864",
        "lon": "55.9317089"
    },
    {
        "city": "Туймазы",
        "lat": "54.5999224",
        "lon": "53.6950623"
    },
    {
        "city": "Уфа",
        "lat": "54.734944",
        "lon": "55.9578468"
    },
    {
        "city": "Учалы",
        "lat": "54.3067375",
        "lon": "59.4125461"
    },
    {
        "city": "Янаул",
        "lat": "56.2650146",
        "lon": "54.929907"
    },
    {
        "city": "Алексеевка",
        "lat": "50.6299647",
        "lon": "38.6880342"
    },
    {
        "city": "Белгород",
        "lat": "50.5976472",
        "lon": "36.5856652"
    },
    {
        "city": "Бирюч",
        "lat": "50.6484585",
        "lon": "38.4005083"
    },
    {
        "city": "Валуйки",
        "lat": "50.2111207",
        "lon": "38.0998772"
    },
    {
        "city": "Грайворон",
        "lat": "50.4862958",
        "lon": "35.6663877"
    },
    {
        "city": "Губкин",
        "lat": "51.2837123",
        "lon": "37.5347759"
    },
    {
        "city": "Короча",
        "lat": "50.8129041",
        "lon": "37.1896436"
    },
    {
        "city": "Новый Оскол",
        "lat": "50.7633747",
        "lon": "37.8775484"
    },
    {
        "city": "Старый Оскол",
        "lat": "51.2967101",
        "lon": "37.8350182"
    },
    {
        "city": "Строитель",
        "lat": "50.7845099",
        "lon": "36.4887648"
    },
    {
        "city": "Шебекино",
        "lat": "50.4004883",
        "lon": "36.8877889"
    },
    {
        "city": "Брянск",
        "lat": "53.2419535",
        "lon": "34.3652146"
    },
    {
        "city": "Дятьково",
        "lat": "53.5958178",
        "lon": "34.3551812"
    },
    {
        "city": "Жуковка",
        "lat": "53.5340397",
        "lon": "33.7302579"
    },
    {
        "city": "Злынка",
        "lat": "52.4267015",
        "lon": "31.7360399"
    },
    {
        "city": "Карачев",
        "lat": "53.1296524",
        "lon": "34.9888727"
    },
    {
        "city": "Клинцы",
        "lat": "52.7529119",
        "lon": "32.233911"
    },
    {
        "city": "Мглин",
        "lat": "53.0599771",
        "lon": "32.8468129"
    },
    {
        "city": "Новозыбков",
        "lat": "52.537173",
        "lon": "31.9357991"
    },
    {
        "city": "Почеп",
        "lat": "52.9154851",
        "lon": "33.4744058"
    },
    {
        "city": "Севск",
        "lat": "52.1483358",
        "lon": "34.4918415"
    },
    {
        "city": "Сельцо",
        "lat": "53.3739884",
        "lon": "34.1059172"
    },
    {
        "city": "Стародуб",
        "lat": "52.5852257",
        "lon": "32.760403"
    },
    {
        "city": "Сураж",
        "lat": "53.0170888",
        "lon": "32.3938878"
    },
    {
        "city": "Трубчевск",
        "lat": "52.5791734",
        "lon": "33.7660547"
    },
    {
        "city": "Унеча",
        "lat": "52.8461199",
        "lon": "32.6757629"
    },
    {
        "city": "Фокино",
        "lat": "53.4554145",
        "lon": "34.4159238"
    },
    {
        "city": "Бабушкин",
        "lat": "51.7112755",
        "lon": "105.8673219"
    },
    {
        "city": "Гусиноозерск",
        "lat": "51.2865048",
        "lon": "106.5230319"
    },
    {
        "city": "Закаменск",
        "lat": "50.372713",
        "lon": "103.286699"
    },
    {
        "city": "Кяхта",
        "lat": "50.346543",
        "lon": "106.4533516"
    },
    {
        "city": "Северобайкальск",
        "lat": "55.635614",
        "lon": "109.3361505"
    },
    {
        "city": "Улан-Удэ",
        "lat": "51.8335853",
        "lon": "107.5842223"
    },
    {
        "city": "Александров",
        "lat": "56.391819",
        "lon": "38.7111123"
    },
    {
        "city": "Владимир",
        "lat": "56.1280804",
        "lon": "40.4084376"
    },
    {
        "city": "Вязники",
        "lat": "56.29773",
        "lon": "42.2687398"
    },
    {
        "city": "Гороховец",
        "lat": "56.2021036",
        "lon": "42.6926111"
    },
    {
        "city": "Гусь-Хрустальный",
        "lat": "55.6198751",
        "lon": "40.6579929"
    },
    {
        "city": "Камешково",
        "lat": "56.3490152",
        "lon": "40.9955183"
    },
    {
        "city": "Карабаново",
        "lat": "56.3131822",
        "lon": "38.7034257"
    },
    {
        "city": "Киржач",
        "lat": "56.1486863",
        "lon": "38.8635701"
    },
    {
        "city": "Ковров",
        "lat": "56.3554349",
        "lon": "41.3170576"
    },
    {
        "city": "Кольчугино",
        "lat": "56.3327254",
        "lon": "39.391336"
    },
    {
        "city": "Костерево",
        "lat": "55.9337222",
        "lon": "39.6247398"
    },
    {
        "city": "Курлово",
        "lat": "55.452698",
        "lon": "40.6124108"
    },
    {
        "city": "Лакинск",
        "lat": "56.0180587",
        "lon": "39.956551"
    },
    {
        "city": "Меленки",
        "lat": "55.3387515",
        "lon": "41.6340046"
    },
    {
        "city": "Муром",
        "lat": "55.5630311",
        "lon": "42.0231362"
    },
    {
        "city": "Петушки",
        "lat": "55.9298134",
        "lon": "39.4508075"
    },
    {
        "city": "Покров",
        "lat": "55.9166398",
        "lon": "39.1734526"
    },
    {
        "city": "Радужный",
        "lat": "55.9960277",
        "lon": "40.3321855"
    },
    {
        "city": "Собинка",
        "lat": "55.9939169",
        "lon": "40.0179653"
    },
    {
        "city": "Струнино",
        "lat": "56.3749967",
        "lon": "38.5839667"
    },
    {
        "city": "Судогда",
        "lat": "55.9498056",
        "lon": "40.8562939"
    },
    {
        "city": "Суздаль",
        "lat": "56.4274441",
        "lon": "40.4525692"
    },
    {
        "city": "Юрьев-Польский",
        "lat": "56.4937757",
        "lon": "39.6680539"
    },
    {
        "city": "Волгоград",
        "lat": "48.7070042",
        "lon": "44.5170339"
    },
    {
        "city": "Волжский",
        "lat": "48.7978209",
        "lon": "44.7462538"
    },
    {
        "city": "Дубовка",
        "lat": "49.0554742",
        "lon": "44.8270085"
    },
    {
        "city": "Жирновск",
        "lat": "50.9768814",
        "lon": "44.7858202"
    },
    {
        "city": "Калач-на-Дону",
        "lat": "48.6889024",
        "lon": "43.5306303"
    },
    {
        "city": "Камышин",
        "lat": "50.0651529",
        "lon": "45.3844202"
    },
    {
        "city": "Котельниково",
        "lat": "47.6310259",
        "lon": "43.1330872"
    },
    {
        "city": "Котово",
        "lat": "50.3205766",
        "lon": "44.8030699"
    },
    {
        "city": "Краснослободск",
        "lat": "48.7068721",
        "lon": "44.5630857"
    },
    {
        "city": "Ленинск",
        "lat": "48.6936061",
        "lon": "45.1992692"
    },
    {
        "city": "Михайловка",
        "lat": "50.0708719",
        "lon": "43.2401512"
    },
    {
        "city": "Николаевск",
        "lat": "50.0165306",
        "lon": "45.4731658"
    },
    {
        "city": "Новоаннинский",
        "lat": "50.5296067",
        "lon": "42.6666439"
    },
    {
        "city": "Палласовка",
        "lat": "50.0500944",
        "lon": "46.8804277"
    },
    {
        "city": "Петров Вал",
        "lat": "50.1380557",
        "lon": "45.20914"
    },
    {
        "city": "Серафимович",
        "lat": "49.5663183",
        "lon": "42.7360402"
    },
    {
        "city": "Суровикино",
        "lat": "48.618917",
        "lon": "42.8541163"
    },
    {
        "city": "Урюпинск",
        "lat": "50.7903789",
        "lon": "42.0288513"
    },
    {
        "city": "Фролово",
        "lat": "49.7649148",
        "lon": "43.6648641"
    },
    {
        "city": "Бабаево",
        "lat": "59.3892583",
        "lon": "35.9377058"
    },
    {
        "city": "Белозерск",
        "lat": "60.0308381",
        "lon": "37.7890586"
    },
    {
        "city": "Великий Устюг",
        "lat": "60.7603913",
        "lon": "46.3054414"
    },
    {
        "city": "Вологда",
        "lat": "59.2483905",
        "lon": "39.8355662"
    },
    {
        "city": "Вытегра",
        "lat": "61.0063465",
        "lon": "36.4495137"
    },
    {
        "city": "Грязовец",
        "lat": "58.8757553",
        "lon": "40.2485362"
    },
    {
        "city": "Кадников",
        "lat": "59.5037764",
        "lon": "40.3441148"
    },
    {
        "city": "Кириллов",
        "lat": "59.8591523",
        "lon": "38.3748782"
    },
    {
        "city": "Красавино",
        "lat": "60.9612823",
        "lon": "46.4814116"
    },
    {
        "city": "Никольск",
        "lat": "59.5351837",
        "lon": "45.4576137"
    },
    {
        "city": "Сокол",
        "lat": "59.4758605",
        "lon": "40.1114187"
    },
    {
        "city": "Тотьма",
        "lat": "59.9734998",
        "lon": "42.7589506"
    },
    {
        "city": "Устюжна",
        "lat": "58.8383117",
        "lon": "36.4425478"
    },
    {
        "city": "Харовск",
        "lat": "59.9479423",
        "lon": "40.2000298"
    },
    {
        "city": "Череповец",
        "lat": "59.1269212",
        "lon": "37.9090497"
    },
    {
        "city": "Бобров",
        "lat": "51.0901649",
        "lon": "40.0318256"
    },
    {
        "city": "Богучар",
        "lat": "49.9352454",
        "lon": "40.5590801"
    },
    {
        "city": "Борисоглебск",
        "lat": "51.3655754",
        "lon": "42.1008334"
    },
    {
        "city": "Бутурлиновка",
        "lat": "50.8311818",
        "lon": "40.5976923"
    },
    {
        "city": "Воронеж",
        "lat": "51.6593332",
        "lon": "39.1969229"
    },
    {
        "city": "Калач",
        "lat": "50.4242134",
        "lon": "41.0162014"
    },
    {
        "city": "Лиски",
        "lat": "50.9945626",
        "lon": "39.5184909"
    },
    {
        "city": "Нововоронеж",
        "lat": "51.3091524",
        "lon": "39.2162843"
    },
    {
        "city": "Новохоперск",
        "lat": "51.0952211",
        "lon": "41.6173404"
    },
    {
        "city": "Острогожск",
        "lat": "50.8677905",
        "lon": "39.0407746"
    },
    {
        "city": "Павловск",
        "lat": "50.453455",
        "lon": "40.136874"
    },
    {
        "city": "Поворино",
        "lat": "51.1954419",
        "lon": "42.2472726"
    },
    {
        "city": "Россошь",
        "lat": "50.1701949",
        "lon": "39.6226965"
    },
    {
        "city": "Семилуки",
        "lat": "51.6951644",
        "lon": "39.0190454"
    },
    {
        "city": "Эртиль",
        "lat": "51.830932",
        "lon": "40.8074182"
    },
    {
        "city": "Буйнакск",
        "lat": "42.8214424",
        "lon": "47.1165263"
    },
    {
        "city": "Дагестанские Огни",
        "lat": "42.1152296",
        "lon": "48.1939354"
    },
    {
        "city": "Дербент",
        "lat": "42.058966",
        "lon": "48.2907452"
    },
    {
        "city": "Избербаш",
        "lat": "42.5650962",
        "lon": "47.8710051"
    },
    {
        "city": "Каспийск",
        "lat": "42.8916007",
        "lon": "47.6367066"
    },
    {
        "city": "Кизилюрт",
        "lat": "43.203825",
        "lon": "46.8729636"
    },
    {
        "city": "Кизляр",
        "lat": "43.8484083",
        "lon": "46.7233699"
    },
    {
        "city": "Махачкала",
        "lat": "42.9849159",
        "lon": "47.5047181"
    },
    {
        "city": "Хасавюрт",
        "lat": "43.2504665",
        "lon": "46.5851292"
    },
    {
        "city": "Южно-Сухокумск",
        "lat": "44.6602467",
        "lon": "45.6499523"
    },
    {
        "city": "Биробиджан",
        "lat": "48.7946446",
        "lon": "132.9217207"
    },
    {
        "city": "Облучье",
        "lat": "49.0189345",
        "lon": "131.0540102"
    },
    {
        "city": "Балей",
        "lat": "51.5823759",
        "lon": "116.6379549"
    },
    {
        "city": "Борзя",
        "lat": "50.3876058",
        "lon": "116.5234779"
    },
    {
        "city": "Краснокаменск",
        "lat": "50.0929703",
        "lon": "118.0323936"
    },
    {
        "city": "Могоча",
        "lat": "53.7361398",
        "lon": "119.7660867"
    },
    {
        "city": "Нерчинск",
        "lat": "51.9594977",
        "lon": "116.5852383"
    },
    {
        "city": "Петровск-Забайкальский",
        "lat": "51.2748592",
        "lon": "108.846681"
    },
    {
        "city": "Сретенск",
        "lat": "52.2461454",
        "lon": "117.7117842"
    },
    {
        "city": "Хилок",
        "lat": "51.3634856",
        "lon": "110.4590898"
    },
    {
        "city": "Чита",
        "lat": "52.0340142",
        "lon": "113.4994"
    },
    {
        "city": "Шилка",
        "lat": "51.8497035",
        "lon": "116.0334461"
    },
    {
        "city": "Вичуга",
        "lat": "57.2044698",
        "lon": "41.9132201"
    },
    {
        "city": "Гаврилов Посад",
        "lat": "56.5586946",
        "lon": "40.1228906"
    },
    {
        "city": "Заволжск",
        "lat": "57.4918141",
        "lon": "42.1375625"
    },
    {
        "city": "Иваново",
        "lat": "56.9993792",
        "lon": "40.9728272"
    },
    {
        "city": "Кинешма",
        "lat": "57.4425463",
        "lon": "42.168914"
    },
    {
        "city": "Комсомольск",
        "lat": "57.0273052",
        "lon": "40.3776851"
    },
    {
        "city": "Кохма",
        "lat": "56.9324606",
        "lon": "41.0931657"
    },
    {
        "city": "Наволоки",
        "lat": "57.4679066",
        "lon": "41.9608002"
    },
    {
        "city": "Плес",
        "lat": "57.4606031",
        "lon": "41.5122672"
    },
    {
        "city": "Приволжск",
        "lat": "57.3805743",
        "lon": "41.2808565"
    },
    {
        "city": "Пучеж",
        "lat": "56.9820688",
        "lon": "43.1683321"
    },
    {
        "city": "Родники",
        "lat": "57.1025975",
        "lon": "41.7298834"
    },
    {
        "city": "Тейково",
        "lat": "56.8542719",
        "lon": "40.5353874"
    },
    {
        "city": "Фурманов",
        "lat": "57.2539276",
        "lon": "41.1054432"
    },
    {
        "city": "Шуя",
        "lat": "56.8560234",
        "lon": "41.3800939"
    },
    {
        "city": "Южа",
        "lat": "56.5926877",
        "lon": "42.0458099"
    },
    {
        "city": "Юрьевец",
        "lat": "57.3177781",
        "lon": "43.1110401"
    },
    {
        "city": "Карабулак",
        "lat": "43.3055248",
        "lon": "44.9094582"
    },
    {
        "city": "Магас",
        "lat": "43.1688611",
        "lon": "44.8131207"
    },
    {
        "city": "Малгобек",
        "lat": "43.5096646",
        "lon": "44.5901963"
    },
    {
        "city": "Назрань",
        "lat": "43.2257841",
        "lon": "44.7645779"
    },
    {
        "city": "Сунжа",
        "lat": "43.3204196",
        "lon": "45.0476331"
    },
    {
        "city": "Алзамай",
        "lat": "55.5551233",
        "lon": "98.6643699"
    },
    {
        "city": "Ангарск",
        "lat": "52.544879",
        "lon": "103.888543"
    },
    {
        "city": "Байкальск",
        "lat": "51.5230393",
        "lon": "104.1487532"
    },
    {
        "city": "Бирюсинск",
        "lat": "55.9609167",
        "lon": "97.8205348"
    },
    {
        "city": "Бодайбо",
        "lat": "57.8468636",
        "lon": "114.1866287"
    },
    {
        "city": "Братск",
        "lat": "56.1513108",
        "lon": "101.6340035"
    },
    {
        "city": "Вихоревка",
        "lat": "56.1208145",
        "lon": "101.1702926"
    },
    {
        "city": "Железногорск-Илимский",
        "lat": "56.5847888",
        "lon": "104.114275"
    },
    {
        "city": "Зима",
        "lat": "53.920693",
        "lon": "102.0491772"
    },
    {
        "city": "Иркутск",
        "lat": "52.2864036",
        "lon": "104.2807466"
    },
    {
        "city": "Киренск",
        "lat": "57.7756595",
        "lon": "108.1109412"
    },
    {
        "city": "Нижнеудинск",
        "lat": "54.8968931",
        "lon": "99.0314056"
    },
    {
        "city": "Саянск",
        "lat": "54.1107238",
        "lon": "102.18015"
    },
    {
        "city": "Свирск",
        "lat": "53.0842668",
        "lon": "103.3364093"
    },
    {
        "city": "Слюдянка",
        "lat": "51.6563983",
        "lon": "103.7187545"
    },
    {
        "city": "Тайшет",
        "lat": "55.9405334",
        "lon": "98.0030145"
    },
    {
        "city": "Тулун",
        "lat": "54.557162",
        "lon": "100.5780603"
    },
    {
        "city": "Усолье-Сибирское",
        "lat": "52.7565808",
        "lon": "103.6388109"
    },
    {
        "city": "Усть-Илимск",
        "lat": "57.9430504",
        "lon": "102.7415734"
    },
    {
        "city": "Усть-Кут",
        "lat": "56.7928178",
        "lon": "105.7757343"
    },
    {
        "city": "Черемхово",
        "lat": "53.1369095",
        "lon": "103.0901268"
    },
    {
        "city": "Шелехов",
        "lat": "52.2102538",
        "lon": "104.0973294"
    },
    {
        "city": "Баксан",
        "lat": "43.6819137",
        "lon": "43.5345036"
    },
    {
        "city": "Майский",
        "lat": "43.6281516",
        "lon": "44.0517314"
    },
    {
        "city": "Нальчик",
        "lat": "43.4845464",
        "lon": "43.60713"
    },
    {
        "city": "Нарткала",
        "lat": "43.5578075",
        "lon": "43.8575925"
    },
    {
        "city": "Прохладный",
        "lat": "43.7589602",
        "lon": "44.0102409"
    },
    {
        "city": "Терек",
        "lat": "43.4839358",
        "lon": "44.1402161"
    },
    {
        "city": "Тырныауз",
        "lat": "43.3981585",
        "lon": "42.9213582"
    },
    {
        "city": "Чегем",
        "lat": "43.5671525",
        "lon": "43.5865792"
    },
    {
        "city": "Багратионовск",
        "lat": "54.3866518",
        "lon": "20.6418091"
    },
    {
        "city": "Балтийск",
        "lat": "54.6513372",
        "lon": "19.9140572"
    },
    {
        "city": "Гвардейск",
        "lat": "54.6588378",
        "lon": "21.0501388"
    },
    {
        "city": "Гурьевск",
        "lat": "54.770638",
        "lon": "20.6039767"
    },
    {
        "city": "Гусев",
        "lat": "54.5915455",
        "lon": "22.1942445"
    },
    {
        "city": "Зеленоградск",
        "lat": "54.9600185",
        "lon": "20.4753652"
    },
    {
        "city": "Калининград",
        "lat": "54.7074702",
        "lon": "20.5073241"
    },
    {
        "city": "Краснознаменск",
        "lat": "54.9453423",
        "lon": "22.4928745"
    },
    {
        "city": "Ладушкин",
        "lat": "54.5692156",
        "lon": "20.1690153"
    },
    {
        "city": "Мамоново",
        "lat": "54.4646036",
        "lon": "19.9453482"
    },
    {
        "city": "Неман",
        "lat": "55.0316524",
        "lon": "22.0324064"
    },
    {
        "city": "Нестеров",
        "lat": "54.6313814",
        "lon": "22.5713736"
    },
    {
        "city": "Озерск",
        "lat": "54.4084705",
        "lon": "22.0134438"
    },
    {
        "city": "Пионерский",
        "lat": "54.9516574",
        "lon": "20.2277424"
    },
    {
        "city": "Полесск",
        "lat": "54.8625126",
        "lon": "21.0998067"
    },
    {
        "city": "Правдинск",
        "lat": "54.4430986",
        "lon": "21.0085269"
    },
    {
        "city": "Приморск",
        "lat": "54.7311437",
        "lon": "19.9981926"
    },
    {
        "city": "Светлогорск",
        "lat": "54.9439286",
        "lon": "20.1514295"
    },
    {
        "city": "Светлый",
        "lat": "54.6772897",
        "lon": "20.1357595"
    },
    {
        "city": "Славск",
        "lat": "55.0449714",
        "lon": "21.6742367"
    },
    {
        "city": "Советск",
        "lat": "55.0809336",
        "lon": "21.8886106"
    },
    {
        "city": "Черняховск",
        "lat": "54.6244751",
        "lon": "21.7969062"
    },
    {
        "city": "Городовиковск",
        "lat": "46.0875083",
        "lon": "41.935537"
    },
    {
        "city": "Лагань",
        "lat": "45.3930912",
        "lon": "47.3432602"
    },
    {
        "city": "Элиста",
        "lat": "46.3083344",
        "lon": "44.2702088"
    },
    {
        "city": "Балабаново",
        "lat": "55.1773714",
        "lon": "36.6566951"
    },
    {
        "city": "Белоусово",
        "lat": "55.0956803",
        "lon": "36.677629"
    },
    {
        "city": "Боровск",
        "lat": "55.2130096",
        "lon": "36.4926251"
    },
    {
        "city": "Ермолино",
        "lat": "55.1971758",
        "lon": "36.5952722"
    },
    {
        "city": "Жиздра",
        "lat": "53.7521926",
        "lon": "34.7386592"
    },
    {
        "city": "Жуков",
        "lat": "55.0301833",
        "lon": "36.7394903"
    },
    {
        "city": "Калуга",
        "lat": "54.5059848",
        "lon": "36.2516245"
    },
    {
        "city": "Киров",
        "lat": "54.0790111",
        "lon": "34.3076201"
    },
    {
        "city": "Козельск",
        "lat": "54.0347201",
        "lon": "35.780768"
    },
    {
        "city": "Кондрово",
        "lat": "54.7959473",
        "lon": "35.9274842"
    },
    {
        "city": "Кременки",
        "lat": "54.8862447",
        "lon": "37.1168701"
    },
    {
        "city": "Людиново",
        "lat": "53.8700828",
        "lon": "34.4385915"
    },
    {
        "city": "Малоярославец",
        "lat": "55.0177123",
        "lon": "36.4633603"
    },
    {
        "city": "Медынь",
        "lat": "54.9689785",
        "lon": "35.8872168"
    },
    {
        "city": "Мещовск",
        "lat": "54.3191471",
        "lon": "35.2816918"
    },
    {
        "city": "Мосальск",
        "lat": "54.4824939",
        "lon": "34.9872239"
    },
    {
        "city": "Обнинск",
        "lat": "55.0943144",
        "lon": "36.6121639"
    },
    {
        "city": "Сосенский",
        "lat": "54.0566016",
        "lon": "35.9621646"
    },
    {
        "city": "Спас-Деменск",
        "lat": "54.409922",
        "lon": "34.0189631"
    },
    {
        "city": "Сухиничи",
        "lat": "54.097296",
        "lon": "35.3443568"
    },
    {
        "city": "Таруса",
        "lat": "54.7236477",
        "lon": "37.1671"
    },
    {
        "city": "Юхнов",
        "lat": "54.7446445",
        "lon": "35.2424346"
    },
    {
        "city": "Вилючинск",
        "lat": "52.9302415",
        "lon": "158.4057632"
    },
    {
        "city": "Елизово",
        "lat": "53.1830375",
        "lon": "158.3883548"
    },
    {
        "city": "Петропавловск-Камчатский",
        "lat": "53.036908",
        "lon": "158.6559254"
    },
    {
        "city": "Карачаевск",
        "lat": "43.7732525",
        "lon": "41.9143472"
    },
    {
        "city": "Теберда",
        "lat": "43.4437731",
        "lon": "41.7415142"
    },
    {
        "city": "Усть-Джегута",
        "lat": "44.0838442",
        "lon": "41.9711046"
    },
    {
        "city": "Черкесск",
        "lat": "44.2269425",
        "lon": "42.0466704"
    },
    {
        "city": "Беломорск",
        "lat": "64.5378417",
        "lon": "34.7799462"
    },
    {
        "city": "Кемь",
        "lat": "64.9543539",
        "lon": "34.5949263"
    },
    {
        "city": "Кондопога",
        "lat": "62.2059817",
        "lon": "34.2682122"
    },
    {
        "city": "Костомукша",
        "lat": "64.5889398",
        "lon": "30.6016832"
    },
    {
        "city": "Лахденпохья",
        "lat": "61.518881",
        "lon": "30.1996116"
    },
    {
        "city": "Медвежьегорск",
        "lat": "62.9127626",
        "lon": "34.4568489"
    },
    {
        "city": "Олонец",
        "lat": "60.9794025",
        "lon": "32.9725519"
    },
    {
        "city": "Петрозаводск",
        "lat": "61.7891264",
        "lon": "34.3596434"
    },
    {
        "city": "Питкяранта",
        "lat": "61.5757191",
        "lon": "31.4640557"
    },
    {
        "city": "Пудож",
        "lat": "61.8058821",
        "lon": "36.5329941"
    },
    {
        "city": "Сегежа",
        "lat": "63.7437572",
        "lon": "34.3126982"
    },
    {
        "city": "Сортавала",
        "lat": "61.703367",
        "lon": "30.6916998"
    },
    {
        "city": "Суоярви",
        "lat": "62.0787293",
        "lon": "32.3499386"
    },
    {
        "city": "Анжеро-Судженск",
        "lat": "56.0786281",
        "lon": "86.0201278"
    },
    {
        "city": "Белово",
        "lat": "54.4220968",
        "lon": "86.3037373"
    },
    {
        "city": "Березовский",
        "lat": "55.6693513",
        "lon": "86.2744459"
    },
    {
        "city": "Гурьевск",
        "lat": "54.2859263",
        "lon": "85.9475985"
    },
    {
        "city": "Калтан",
        "lat": "53.5210919",
        "lon": "87.2771636"
    },
    {
        "city": "Кемерово",
        "lat": "55.3910651",
        "lon": "86.0467781"
    },
    {
        "city": "Киселевск",
        "lat": "54.0059999",
        "lon": "86.6366116"
    },
    {
        "city": "Ленинск-Кузнецкий",
        "lat": "54.6674492",
        "lon": "86.1797324"
    },
    {
        "city": "Мариинск",
        "lat": "56.2127383",
        "lon": "87.7454924"
    },
    {
        "city": "Междуреченск",
        "lat": "53.6865289",
        "lon": "88.0702754"
    },
    {
        "city": "Мыски",
        "lat": "53.7125695",
        "lon": "87.8055646"
    },
    {
        "city": "Новокузнецк",
        "lat": "53.794315",
        "lon": "87.2142745"
    },
    {
        "city": "Осинники",
        "lat": "53.5988055",
        "lon": "87.3371272"
    },
    {
        "city": "Полысаево",
        "lat": "54.6055",
        "lon": "86.2809208"
    },
    {
        "city": "Прокопьевск",
        "lat": "53.8604265",
        "lon": "86.7183577"
    },
    {
        "city": "Салаир",
        "lat": "54.2351735",
        "lon": "85.8030733"
    },
    {
        "city": "Тайга",
        "lat": "56.0622131",
        "lon": "85.6207182"
    },
    {
        "city": "Таштагол",
        "lat": "52.759313",
        "lon": "87.8476546"
    },
    {
        "city": "Топки",
        "lat": "55.2764707",
        "lon": "85.6152619"
    },
    {
        "city": "Юрга",
        "lat": "55.7202694",
        "lon": "84.8886399"
    },
    {
        "city": "Белая Холуница",
        "lat": "58.8415239",
        "lon": "50.8460699"
    },
    {
        "city": "Вятские Поляны",
        "lat": "56.2284817",
        "lon": "51.0614855"
    },
    {
        "city": "Зуевка",
        "lat": "58.4032152",
        "lon": "51.1331606"
    },
    {
        "city": "Киров",
        "lat": "58.6035264",
        "lon": "49.6679304"
    },
    {
        "city": "Кирово-Чепецк",
        "lat": "58.5559424",
        "lon": "50.0316848"
    },
    {
        "city": "Кирс",
        "lat": "59.340056",
        "lon": "52.2414437"
    },
    {
        "city": "Котельнич",
        "lat": "58.3034832",
        "lon": "48.3475597"
    },
    {
        "city": "Луза",
        "lat": "60.6290609",
        "lon": "47.2612445"
    },
    {
        "city": "Малмыж",
        "lat": "56.5243844",
        "lon": "50.6782739"
    },
    {
        "city": "Мураши",
        "lat": "59.3955383",
        "lon": "48.9638417"
    },
    {
        "city": "Нолинск",
        "lat": "57.5597284",
        "lon": "49.93575"
    },
    {
        "city": "Омутнинск",
        "lat": "58.6698913",
        "lon": "52.1894564"
    },
    {
        "city": "Орлов",
        "lat": "58.5389776",
        "lon": "48.8927723"
    },
    {
        "city": "Слободской",
        "lat": "58.7311574",
        "lon": "50.1669249"
    },
    {
        "city": "Советск",
        "lat": "57.584196",
        "lon": "48.9590272"
    },
    {
        "city": "Сосновка",
        "lat": "56.2532741",
        "lon": "51.2833642"
    },
    {
        "city": "Уржум",
        "lat": "57.1097477",
        "lon": "50.0058097"
    },
    {
        "city": "Яранск",
        "lat": "57.3040326",
        "lon": "47.8478737"
    },
    {
        "city": "Воркута",
        "lat": "67.4974082",
        "lon": "64.061034"
    },
    {
        "city": "Вуктыл",
        "lat": "63.8615274",
        "lon": "57.3165402"
    },
    {
        "city": "Емва",
        "lat": "62.5965137",
        "lon": "50.8732125"
    },
    {
        "city": "Инта",
        "lat": "66.0367316",
        "lon": "60.1152961"
    },
    {
        "city": "Микунь",
        "lat": "62.3579068",
        "lon": "50.0719503"
    },
    {
        "city": "Печора",
        "lat": "65.148584",
        "lon": "57.2239777"
    },
    {
        "city": "Сосногорск",
        "lat": "63.5989841",
        "lon": "53.876293"
    },
    {
        "city": "Сыктывкар",
        "lat": "61.6686617",
        "lon": "50.8358151"
    },
    {
        "city": "Усинск",
        "lat": "65.994147",
        "lon": "57.5569423"
    },
    {
        "city": "Ухта",
        "lat": "63.5565514",
        "lon": "53.7014239"
    },
    {
        "city": "Буй",
        "lat": "58.4733277",
        "lon": "41.5306822"
    },
    {
        "city": "Волгореченск",
        "lat": "57.4424559",
        "lon": "41.1594201"
    },
    {
        "city": "Галич",
        "lat": "58.3828191",
        "lon": "42.3654013"
    },
    {
        "city": "Кологрив",
        "lat": "58.8269323",
        "lon": "44.3184927"
    },
    {
        "city": "Кострома",
        "lat": "57.768",
        "lon": "40.927"
    },
    {
        "city": "Макарьев",
        "lat": "57.8807152",
        "lon": "43.8014197"
    },
    {
        "city": "Мантурово",
        "lat": "58.3265441",
        "lon": "44.757494"
    },
    {
        "city": "Нерехта",
        "lat": "57.4543369",
        "lon": "40.5723598"
    },
    {
        "city": "Нея",
        "lat": "58.2943349",
        "lon": "43.8780948"
    },
    {
        "city": "Солигалич",
        "lat": "59.0784867",
        "lon": "42.2878423"
    },
    {
        "city": "Чухлома",
        "lat": "58.753421",
        "lon": "42.6884958"
    },
    {
        "city": "Шарья",
        "lat": "58.3760542",
        "lon": "45.4062414"
    },
    {
        "city": "Абинск",
        "lat": "44.8679655",
        "lon": "38.1618157"
    },
    {
        "city": "Анапа",
        "lat": "44.8950433",
        "lon": "37.3163282"
    },
    {
        "city": "Апшеронск",
        "lat": "44.4584006",
        "lon": "39.7299824"
    },
    {
        "city": "Армавир",
        "lat": "45.0012149",
        "lon": "41.1324168"
    },
    {
        "city": "Белореченск",
        "lat": "44.7651876",
        "lon": "39.8781494"
    },
    {
        "city": "Геленджик",
        "lat": "44.5630007",
        "lon": "38.0790852"
    },
    {
        "city": "Горячий Ключ",
        "lat": "44.6344864",
        "lon": "39.1354738"
    },
    {
        "city": "Гулькевичи",
        "lat": "45.3605121",
        "lon": "40.6918389"
    },
    {
        "city": "Ейск",
        "lat": "46.71157",
        "lon": "38.2763895"
    },
    {
        "city": "Кореновск",
        "lat": "45.4641703",
        "lon": "39.458949"
    },
    {
        "city": "Краснодар",
        "lat": "45.0401604",
        "lon": "38.9759647"
    },
    {
        "city": "Кропоткин",
        "lat": "45.4333007",
        "lon": "40.5727951"
    },
    {
        "city": "Крымск",
        "lat": "44.9344404",
        "lon": "37.9855795"
    },
    {
        "city": "Курганинск",
        "lat": "44.8877025",
        "lon": "40.5913245"
    },
    {
        "city": "Лабинск",
        "lat": "44.6354363",
        "lon": "40.7245341"
    },
    {
        "city": "Новокубанск",
        "lat": "45.1038699",
        "lon": "41.0475175"
    },
    {
        "city": "Новороссийск",
        "lat": "44.7235026",
        "lon": "37.7686135"
    },
    {
        "city": "Приморско-Ахтарск",
        "lat": "46.0515432",
        "lon": "38.1704875"
    },
    {
        "city": "Славянск-на-Кубани",
        "lat": "45.2603626",
        "lon": "38.1259774"
    },
    {
        "city": "Сочи",
        "lat": "43.5854551",
        "lon": "39.7231548"
    },
    {
        "city": "Темрюк",
        "lat": "45.2610949",
        "lon": "37.4454412"
    },
    {
        "city": "Тимашевск",
        "lat": "45.615923",
        "lon": "38.9351837"
    },
    {
        "city": "Тихорецк",
        "lat": "45.8546345",
        "lon": "40.1260267"
    },
    {
        "city": "Туапсе",
        "lat": "44.1105335",
        "lon": "39.0824904"
    },
    {
        "city": "Усть-Лабинск",
        "lat": "45.2227359",
        "lon": "39.6929577"
    },
    {
        "city": "Хадыженск",
        "lat": "44.4122963",
        "lon": "39.5320258"
    },
    {
        "city": "Артемовск",
        "lat": "54.3473075",
        "lon": "93.4358377"
    },
    {
        "city": "Ачинск",
        "lat": "56.253907",
        "lon": "90.4794397"
    },
    {
        "city": "Боготол",
        "lat": "56.2098468",
        "lon": "89.5299336"
    },
    {
        "city": "Бородино",
        "lat": "55.9054121",
        "lon": "94.9020967"
    },
    {
        "city": "Дивногорск",
        "lat": "55.9576784",
        "lon": "92.3800687"
    },
    {
        "city": "Дудинка",
        "lat": "69.4031364",
        "lon": "86.1907218"
    },
    {
        "city": "Енисейск",
        "lat": "58.4485261",
        "lon": "92.1651083"
    },
    {
        "city": "Железногорск",
        "lat": "56.2529035",
        "lon": "93.532273"
    },
    {
        "city": "Заозерный",
        "lat": "55.9617752",
        "lon": "94.7091491"
    },
    {
        "city": "Зеленогорск",
        "lat": "56.1131564",
        "lon": "94.5888103"
    },
    {
        "city": "Игарка",
        "lat": "67.4666901",
        "lon": "86.5812794"
    },
    {
        "city": "Иланский",
        "lat": "56.2374037",
        "lon": "96.067267"
    },
    {
        "city": "Канск",
        "lat": "56.2051282",
        "lon": "95.7051096"
    },
    {
        "city": "Кодинск",
        "lat": "58.6032644",
        "lon": "99.1797962"
    },
    {
        "city": "Красноярск",
        "lat": "56.0093879",
        "lon": "92.8524806"
    },
    {
        "city": "Лесосибирск",
        "lat": "58.221681",
        "lon": "92.5037872"
    },
    {
        "city": "Минусинск",
        "lat": "53.7104586",
        "lon": "91.6872907"
    },
    {
        "city": "Назарово",
        "lat": "56.0113799",
        "lon": "90.4168775"
    },
    {
        "city": "Норильск",
        "lat": "69.3489978",
        "lon": "88.2009846"
    },
    {
        "city": "Сосновоборск",
        "lat": "56.1202647",
        "lon": "93.3354121"
    },
    {
        "city": "Ужур",
        "lat": "55.3141969",
        "lon": "89.8333918"
    },
    {
        "city": "Уяр",
        "lat": "55.8131263",
        "lon": "94.3282601"
    },
    {
        "city": "Шарыпово",
        "lat": "55.5389739",
        "lon": "89.1801044"
    },
    {
        "city": "Ялта",
        "lat": "44.4164605",
        "lon": "34.0444797"
    },
    {
        "city": "Алушта",
        "lat": "44.6764304",
        "lon": "34.4100624"
    },
    {
        "city": "Армянск",
        "lat": "46.1059307",
        "lon": "33.6910012"
    },
    {
        "city": "Бахчисарай",
        "lat": "44.7514769",
        "lon": "33.8752176"
    },
    {
        "city": "Белогорск",
        "lat": "45.057202",
        "lon": "34.5999029"
    },
    {
        "city": "Джанкой",
        "lat": "45.7092306",
        "lon": "34.3883372"
    },
    {
        "city": "Евпатория",
        "lat": "45.190629",
        "lon": "33.367634"
    },
    {
        "city": "Керчь",
        "lat": "45.3562627",
        "lon": "36.4674513"
    },
    {
        "city": "Красноперекопск",
        "lat": "45.9537576",
        "lon": "33.7921939"
    },
    {
        "city": "Саки",
        "lat": "45.1341997",
        "lon": "33.6033383"
    },
    {
        "city": "Симферополь",
        "lat": "44.9482948",
        "lon": "34.1001151"
    },
    {
        "city": "Старый Крым",
        "lat": "45.029058",
        "lon": "35.0901474"
    },
    {
        "city": "Судак",
        "lat": "44.8504679",
        "lon": "34.9762034"
    },
    {
        "city": "Феодосия",
        "lat": "45.0318393",
        "lon": "35.3824259"
    },
    {
        "city": "Щелкино",
        "lat": "45.4288991",
        "lon": "35.825165"
    },
    {
        "city": "Ялта",
        "lat": "44.4953612",
        "lon": "34.166308"
    },
    {
        "city": "Далматово",
        "lat": "56.262114",
        "lon": "62.9387011"
    },
    {
        "city": "Катайск",
        "lat": "56.290809",
        "lon": "62.5800359"
    },
    {
        "city": "Курган",
        "lat": "55.4443883",
        "lon": "65.3161963"
    },
    {
        "city": "Куртамыш",
        "lat": "54.9368539",
        "lon": "64.4203722"
    },
    {
        "city": "Макушино",
        "lat": "55.2153947",
        "lon": "67.2451705"
    },
    {
        "city": "Петухово",
        "lat": "55.0650077",
        "lon": "67.8873408"
    },
    {
        "city": "Шадринск",
        "lat": "56.0870344",
        "lon": "63.6297182"
    },
    {
        "city": "Шумиха",
        "lat": "55.2280246",
        "lon": "63.2901272"
    },
    {
        "city": "Щучье",
        "lat": "55.2087637",
        "lon": "62.7478548"
    },
    {
        "city": "Дмитриев",
        "lat": "52.1268464",
        "lon": "35.0739038"
    },
    {
        "city": "Железногорск",
        "lat": "52.3380202",
        "lon": "35.3516867"
    },
    {
        "city": "Курск",
        "lat": "51.7303637",
        "lon": "36.1925603"
    },
    {
        "city": "Курчатов",
        "lat": "51.6604083",
        "lon": "35.6572224"
    },
    {
        "city": "Льгов",
        "lat": "51.6597148",
        "lon": "35.2612491"
    },
    {
        "city": "Обоянь",
        "lat": "51.2119324",
        "lon": "36.2755133"
    },
    {
        "city": "Рыльск",
        "lat": "51.5681314",
        "lon": "34.6802597"
    },
    {
        "city": "Суджа",
        "lat": "51.1918927",
        "lon": "35.2720915"
    },
    {
        "city": "Фатеж",
        "lat": "52.0917728",
        "lon": "35.8538706"
    },
    {
        "city": "Щигры",
        "lat": "51.8786014",
        "lon": "36.8910945"
    },
    {
        "city": "Бокситогорск",
        "lat": "59.4734797",
        "lon": "33.845688"
    },
    {
        "city": "Волосово",
        "lat": "59.4445408",
        "lon": "29.4923355"
    },
    {
        "city": "Волхов",
        "lat": "59.9005958",
        "lon": "32.3520756"
    },
    {
        "city": "Всеволожск",
        "lat": "60.0191278",
        "lon": "30.6456718"
    },
    {
        "city": "Выборг",
        "lat": "60.7130801",
        "lon": "28.7328336"
    },
    {
        "city": "Высоцк",
        "lat": "60.6296236",
        "lon": "28.5709314"
    },
    {
        "city": "Гатчина",
        "lat": "59.565237",
        "lon": "30.1282473"
    },
    {
        "city": "Ивангород",
        "lat": "59.3766119",
        "lon": "28.2231659"
    },
    {
        "city": "Каменногорск",
        "lat": "60.950855",
        "lon": "29.1308372"
    },
    {
        "city": "Кингисепп",
        "lat": "59.3740435",
        "lon": "28.6112444"
    },
    {
        "city": "Кириши",
        "lat": "59.4742862",
        "lon": "32.0624947"
    },
    {
        "city": "Кировск",
        "lat": "59.8754216",
        "lon": "30.981364"
    },
    {
        "city": "Коммунар",
        "lat": "59.6215133",
        "lon": "30.3934125"
    },
    {
        "city": "Кудрово",
        "lat": "59.9075226",
        "lon": "30.5121008"
    },
    {
        "city": "Лодейное Поле",
        "lat": "60.7320936",
        "lon": "33.5521022"
    },
    {
        "city": "Луга",
        "lat": "58.7374031",
        "lon": "29.8465776"
    },
    {
        "city": "Любань",
        "lat": "59.3493847",
        "lon": "31.2484801"
    },
    {
        "city": "Мурино",
        "lat": "60.044862",
        "lon": "30.4571456"
    },
    {
        "city": "Никольское",
        "lat": "59.7043309",
        "lon": "30.7874571"
    },
    {
        "city": "Новая Ладога",
        "lat": "60.1100135",
        "lon": "32.3141203"
    },
    {
        "city": "Отрадное",
        "lat": "59.7726848",
        "lon": "30.7988557"
    },
    {
        "city": "Пикалево",
        "lat": "59.5132022",
        "lon": "34.1772776"
    },
    {
        "city": "Подпорожье",
        "lat": "60.9127549",
        "lon": "34.1567664"
    },
    {
        "city": "Приморск",
        "lat": "60.3660209",
        "lon": "28.6135772"
    },
    {
        "city": "Приозерск",
        "lat": "61.0330896",
        "lon": "30.1587851"
    },
    {
        "city": "Светогорск",
        "lat": "61.1111282",
        "lon": "28.8725865"
    },
    {
        "city": "Сертолово",
        "lat": "60.1446932",
        "lon": "30.2095918"
    },
    {
        "city": "Сланцы",
        "lat": "59.1178185",
        "lon": "28.0881475"
    },
    {
        "city": "Сосновый Бор",
        "lat": "59.8772884",
        "lon": "29.1291619"
    },
    {
        "city": "Сясьстрой",
        "lat": "60.1401739",
        "lon": "32.5601559"
    },
    {
        "city": "Тихвин",
        "lat": "59.6272904",
        "lon": "33.5072731"
    },
    {
        "city": "Тосно",
        "lat": "59.5407098",
        "lon": "30.877812"
    },
    {
        "city": "Шлиссельбург",
        "lat": "59.9443714",
        "lon": "31.0333365"
    },
    {
        "city": "Грязи",
        "lat": "52.4874097",
        "lon": "39.9331142"
    },
    {
        "city": "Данков",
        "lat": "53.2577411",
        "lon": "39.1456184"
    },
    {
        "city": "Елец",
        "lat": "52.6152411",
        "lon": "38.5289342"
    },
    {
        "city": "Задонск",
        "lat": "52.4004179",
        "lon": "38.9205032"
    },
    {
        "city": "Лебедянь",
        "lat": "53.0156117",
        "lon": "39.143536"
    },
    {
        "city": "Липецк",
        "lat": "52.610249",
        "lon": "39.5947883"
    },
    {
        "city": "Усмань",
        "lat": "52.0442648",
        "lon": "39.726401"
    },
    {
        "city": "Чаплыгин",
        "lat": "53.24048",
        "lon": "39.9670973"
    },
    {
        "city": "Магадан",
        "lat": "59.5681332",
        "lon": "150.8084956"
    },
    {
        "city": "Сусуман",
        "lat": "62.7805882",
        "lon": "148.1540281"
    },
    {
        "city": "Волжск",
        "lat": "55.8623156",
        "lon": "48.3715083"
    },
    {
        "city": "Звенигово",
        "lat": "55.9738571",
        "lon": "48.0170245"
    },
    {
        "city": "Йошкар-Ола",
        "lat": "56.6343662",
        "lon": "47.8999706"
    },
    {
        "city": "Козьмодемьянск",
        "lat": "56.3334036",
        "lon": "46.546675"
    },
    {
        "city": "Ардатов",
        "lat": "54.8465544",
        "lon": "46.2411232"
    },
    {
        "city": "Инсар",
        "lat": "53.8770022",
        "lon": "44.3696566"
    },
    {
        "city": "Ковылкино",
        "lat": "54.0391072",
        "lon": "43.9191539"
    },
    {
        "city": "Краснослободск",
        "lat": "54.4248207",
        "lon": "43.7845011"
    },
    {
        "city": "Рузаевка",
        "lat": "54.0581967",
        "lon": "44.9490466"
    },
    {
        "city": "Саранск",
        "lat": "54.1809332",
        "lon": "45.1862632"
    },
    {
        "city": "Темников",
        "lat": "54.6310583",
        "lon": "43.2161099"
    },
    {
        "city": "",
        "lat": "55.7540471",
        "lon": "37.620405"
    },
    {
        "city": "Апрелевка",
        "lat": "55.5276918",
        "lon": "37.065143"
    },
    {
        "city": "Балашиха",
        "lat": "55.796389",
        "lon": "37.938283"
    },
    {
        "city": "Белоозёрский",
        "lat": "55.4595766",
        "lon": "38.4389742"
    },
    {
        "city": "Бронницы",
        "lat": "55.4255379",
        "lon": "38.264145"
    },
    {
        "city": "Верея",
        "lat": "55.343369",
        "lon": "36.185694"
    },
    {
        "city": "Видное",
        "lat": "55.551725",
        "lon": "37.7061984"
    },
    {
        "city": "Волоколамск",
        "lat": "56.0356499",
        "lon": "35.9585112"
    },
    {
        "city": "",
        "lat": "55.3071519",
        "lon": "38.7027953"
    },
    {
        "city": "Высоковск",
        "lat": "56.3359513",
        "lon": "36.5251837"
    },
    {
        "city": "Голицыно",
        "lat": "55.6190582",
        "lon": "36.9856793"
    },
    {
        "city": "Дедовск",
        "lat": "55.8703276",
        "lon": "37.1245043"
    },
    {
        "city": "Дзержинский",
        "lat": "55.6240869",
        "lon": "37.8440276"
    },
    {
        "city": "",
        "lat": "56.3477457",
        "lon": "37.526672"
    },
    {
        "city": "Долгопрудный",
        "lat": "55.9385999",
        "lon": "37.5101021"
    },
    {
        "city": "Домодедово",
        "lat": "55.4363283",
        "lon": "37.7664984"
    },
    {
        "city": "Дрезна",
        "lat": "55.7443143",
        "lon": "38.8498479"
    },
    {
        "city": "Дубна",
        "lat": "56.741786",
        "lon": "37.1757223"
    },
    {
        "city": "Егорьевск",
        "lat": "55.3830113",
        "lon": "39.0358317"
    },
    {
        "city": "Жуковский",
        "lat": "55.599803",
        "lon": "38.1224298"
    },
    {
        "city": "Зарайск",
        "lat": "54.762456",
        "lon": "38.8850978"
    },
    {
        "city": "Звенигород",
        "lat": "55.7297089",
        "lon": "36.8554029"
    },
    {
        "city": "Ивантеевка",
        "lat": "55.9741665",
        "lon": "37.9207539"
    },
    {
        "city": "",
        "lat": "55.9062267",
        "lon": "36.8601454"
    },
    {
        "city": "Кашира",
        "lat": "54.853337",
        "lon": "38.1904392"
    },
    {
        "city": "",
        "lat": "56.3425605",
        "lon": "36.7240032"
    },
    {
        "city": "Коломна",
        "lat": "55.102814",
        "lon": "38.7531002"
    },
    {
        "city": "Королёв",
        "lat": "55.9161773",
        "lon": "37.8545415"
    },
    {
        "city": "Котельники",
        "lat": "55.6597925",
        "lon": "37.8631156"
    },
    {
        "city": "Красноармейск",
        "lat": "56.105426",
        "lon": "38.140838"
    },
    {
        "city": "Красногорск",
        "lat": "55.8317203",
        "lon": "37.3295266"
    },
    {
        "city": "Краснозаводск",
        "lat": "56.4409979",
        "lon": "38.2320307"
    },
    {
        "city": "Краснознаменск",
        "lat": "55.5978959",
        "lon": "37.0393709"
    },
    {
        "city": "Кубинка",
        "lat": "55.5754955",
        "lon": "36.6951995"
    },
    {
        "city": "Куровское",
        "lat": "55.5792277",
        "lon": "38.9207723"
    },
    {
        "city": "Ликино-Дулёво",
        "lat": "55.7078257",
        "lon": "38.9578093"
    },
    {
        "city": "Лобня",
        "lat": "56.0328881",
        "lon": "37.4614035"
    },
    {
        "city": "Лосино-Петровский",
        "lat": "55.8713214",
        "lon": "38.200599"
    },
    {
        "city": "Луховицы",
        "lat": "54.9652077",
        "lon": "39.0260266"
    },
    {
        "city": "Лыткарино",
        "lat": "55.5778163",
        "lon": "37.9033507"
    },
    {
        "city": "Люберцы",
        "lat": "55.676499",
        "lon": "37.898125"
    },
    {
        "city": "Можайск",
        "lat": "55.5069259",
        "lon": "36.024043"
    },
    {
        "city": "Мытищи",
        "lat": "55.9105782",
        "lon": "37.7363579"
    },
    {
        "city": "",
        "lat": "55.386185",
        "lon": "36.734484"
    },
    {
        "city": "",
        "lat": "55.8686133",
        "lon": "38.4622104"
    },
    {
        "city": "",
        "lat": "55.6789455",
        "lon": "37.263686"
    },
    {
        "city": "Озёры",
        "lat": "54.8541006",
        "lon": "38.5599196"
    },
    {
        "city": "",
        "lat": "55.8151421",
        "lon": "38.9869822"
    },
    {
        "city": "Павловский Посад",
        "lat": "55.7807244",
        "lon": "38.6596983"
    },
    {
        "city": "Пересвет",
        "lat": "56.4158326",
        "lon": "38.1733534"
    },
    {
        "city": "Подольск",
        "lat": "55.4389322",
        "lon": "37.5703482"
    },
    {
        "city": "Протвино",
        "lat": "54.8705984",
        "lon": "37.2182749"
    },
    {
        "city": "Пушкино",
        "lat": "56.0103638",
        "lon": "37.8471403"
    },
    {
        "city": "Пущино",
        "lat": "54.8324412",
        "lon": "37.6210346"
    },
    {
        "city": "Раменское",
        "lat": "55.5495132",
        "lon": "38.2728914"
    },
    {
        "city": "Реутов",
        "lat": "55.7582621",
        "lon": "37.8618553"
    },
    {
        "city": "Рошаль",
        "lat": "55.6632776",
        "lon": "39.8656147"
    },
    {
        "city": "Руза",
        "lat": "55.7014744",
        "lon": "36.1959206"
    },
    {
        "city": "",
        "lat": "56.3062548",
        "lon": "38.1502661"
    },
    {
        "city": "Серпухов",
        "lat": "54.9226466",
        "lon": "37.4033859"
    },
    {
        "city": "Солнечногорск",
        "lat": "56.185102",
        "lon": "36.977631"
    },
    {
        "city": "Старая Купавна",
        "lat": "55.810648",
        "lon": "38.175624"
    },
    {
        "city": "Ступино",
        "lat": "54.886274",
        "lon": "38.078228"
    },
    {
        "city": "Талдом",
        "lat": "56.7308564",
        "lon": "37.5276003"
    },
    {
        "city": "Фрязино",
        "lat": "55.9590588",
        "lon": "38.0410235"
    },
    {
        "city": "Химки",
        "lat": "55.888657",
        "lon": "37.4303702"
    },
    {
        "city": "Хотьково",
        "lat": "56.2516982",
        "lon": "37.9396017"
    },
    {
        "city": "Черноголовка",
        "lat": "56.010005",
        "lon": "38.379245"
    },
    {
        "city": "Чехов",
        "lat": "55.1508011",
        "lon": "37.4533252"
    },
    {
        "city": "",
        "lat": "55.5777427",
        "lon": "39.5445712"
    },
    {
        "city": "Щёлково",
        "lat": "55.9233801",
        "lon": "37.9783707"
    },
    {
        "city": "Электрогорск",
        "lat": "55.8780241",
        "lon": "38.7806752"
    },
    {
        "city": "Электросталь",
        "lat": "55.7847291",
        "lon": "38.4447045"
    },
    {
        "city": "Электроугли",
        "lat": "55.7170877",
        "lon": "38.2192563"
    },
    {
        "city": "Яхрома",
        "lat": "56.2890516",
        "lon": "37.4831799"
    },
    {
        "city": "Апатиты",
        "lat": "67.5677761",
        "lon": "33.4067929"
    },
    {
        "city": "Гаджиево",
        "lat": "69.2491311",
        "lon": "33.315341"
    },
    {
        "city": "Заозерск",
        "lat": "69.4003584",
        "lon": "32.4501496"
    },
    {
        "city": "Заполярный",
        "lat": "69.4132852",
        "lon": "30.7984312"
    },
    {
        "city": "Кандалакша",
        "lat": "67.1567974",
        "lon": "32.4143218"
    },
    {
        "city": "Кировск",
        "lat": "67.6150424",
        "lon": "33.663735"
    },
    {
        "city": "Ковдор",
        "lat": "67.5661417",
        "lon": "30.4741941"
    },
    {
        "city": "Кола",
        "lat": "68.8786028",
        "lon": "33.0262299"
    },
    {
        "city": "Мончегорск",
        "lat": "67.9386153",
        "lon": "32.9359719"
    },
    {
        "city": "Мурманск",
        "lat": "69.007721",
        "lon": "33.0685865"
    },
    {
        "city": "Оленегорск",
        "lat": "68.1422058",
        "lon": "33.2669407"
    },
    {
        "city": "Островной",
        "lat": "68.0510344",
        "lon": "39.5077846"
    },
    {
        "city": "Полярные Зори",
        "lat": "67.373084",
        "lon": "32.4975636"
    },
    {
        "city": "Полярный",
        "lat": "69.1989583",
        "lon": "33.4508591"
    },
    {
        "city": "Североморск",
        "lat": "69.0766801",
        "lon": "33.4177759"
    },
    {
        "city": "Снежногорск",
        "lat": "69.1921409",
        "lon": "33.2383502"
    },
    {
        "city": "Нарьян-Мар",
        "lat": "67.6379672",
        "lon": "53.0069565"
    },
    {
        "city": "Арзамас",
        "lat": "55.3945814",
        "lon": "43.8408141"
    },
    {
        "city": "Балахна",
        "lat": "56.495036",
        "lon": "43.5758423"
    },
    {
        "city": "Богородск",
        "lat": "56.1020828",
        "lon": "43.5135442"
    },
    {
        "city": "Бор",
        "lat": "56.3565458",
        "lon": "44.0646481"
    },
    {
        "city": "Ветлуга",
        "lat": "57.8559204",
        "lon": "45.7761957"
    },
    {
        "city": "Володарск",
        "lat": "56.2169751",
        "lon": "43.1596417"
    },
    {
        "city": "Ворсма",
        "lat": "55.989943",
        "lon": "43.2718859"
    },
    {
        "city": "Выкса",
        "lat": "55.3207727",
        "lon": "42.1678834"
    },
    {
        "city": "Горбатов",
        "lat": "56.1307769",
        "lon": "43.0626185"
    },
    {
        "city": "Городец",
        "lat": "56.6449218",
        "lon": "43.4723104"
    },
    {
        "city": "Дзержинск",
        "lat": "56.2376047",
        "lon": "43.4599416"
    },
    {
        "city": "Заволжье",
        "lat": "56.6404286",
        "lon": "43.3872492"
    },
    {
        "city": "Княгинино",
        "lat": "55.8205915",
        "lon": "45.032337"
    },
    {
        "city": "Кстово",
        "lat": "56.1432084",
        "lon": "44.1664198"
    },
    {
        "city": "Кулебаки",
        "lat": "55.4296181",
        "lon": "42.5125538"
    },
    {
        "city": "Лукоянов",
        "lat": "55.0326225",
        "lon": "44.4933807"
    },
    {
        "city": "Лысково",
        "lat": "56.0262359",
        "lon": "45.035771"
    },
    {
        "city": "Навашино",
        "lat": "55.543811",
        "lon": "42.1887089"
    },
    {
        "city": "Нижний Новгород",
        "lat": "56.3240627",
        "lon": "44.0053913"
    },
    {
        "city": "Павлово",
        "lat": "55.9797564",
        "lon": "43.0995042"
    },
    {
        "city": "Первомайск",
        "lat": "54.8675792",
        "lon": "43.8013992"
    },
    {
        "city": "Перевоз",
        "lat": "55.5967718",
        "lon": "44.5448369"
    },
    {
        "city": "Саров",
        "lat": "54.9228268",
        "lon": "43.3448089"
    },
    {
        "city": "Семенов",
        "lat": "56.7889794",
        "lon": "44.4902885"
    },
    {
        "city": "Сергач",
        "lat": "55.5201515",
        "lon": "45.4813231"
    },
    {
        "city": "Урень",
        "lat": "57.4612572",
        "lon": "45.7833293"
    },
    {
        "city": "Чкаловск",
        "lat": "56.7651262",
        "lon": "43.242077"
    },
    {
        "city": "Шахунья",
        "lat": "57.6764293",
        "lon": "46.6129009"
    },
    {
        "city": "Боровичи",
        "lat": "58.3840197",
        "lon": "33.9175929"
    },
    {
        "city": "Валдай",
        "lat": "57.9823766",
        "lon": "33.2369436"
    },
    {
        "city": "Великий Новгород",
        "lat": "58.5213846",
        "lon": "31.2755394"
    },
    {
        "city": "Малая Вишера",
        "lat": "58.8458379",
        "lon": "32.2247401"
    },
    {
        "city": "Окуловка",
        "lat": "58.3910296",
        "lon": "33.2901557"
    },
    {
        "city": "Пестово",
        "lat": "58.5973723",
        "lon": "35.8143898"
    },
    {
        "city": "Сольцы",
        "lat": "58.1201281",
        "lon": "30.309351"
    },
    {
        "city": "Старая Русса",
        "lat": "57.990737",
        "lon": "31.3554897"
    },
    {
        "city": "Холм",
        "lat": "57.145108",
        "lon": "31.1787499"
    },
    {
        "city": "Чудово",
        "lat": "59.1248394",
        "lon": "31.6866241"
    },
    {
        "city": "Барабинск",
        "lat": "55.35146",
        "lon": "78.3464506"
    },
    {
        "city": "Бердск",
        "lat": "54.7582156",
        "lon": "83.1070605"
    },
    {
        "city": "Болотное",
        "lat": "55.6692421",
        "lon": "84.3906889"
    },
    {
        "city": "Искитим",
        "lat": "54.6267603",
        "lon": "83.2951244"
    },
    {
        "city": "Карасук",
        "lat": "53.7343189",
        "lon": "78.0422967"
    },
    {
        "city": "Каргат",
        "lat": "55.1945666",
        "lon": "80.2829495"
    },
    {
        "city": "Куйбышев",
        "lat": "55.4685094",
        "lon": "78.3242048"
    },
    {
        "city": "Купино",
        "lat": "54.366055",
        "lon": "77.2973368"
    },
    {
        "city": "Новосибирск",
        "lat": "55.028191",
        "lon": "82.9211489"
    },
    {
        "city": "Обь",
        "lat": "54.9945576",
        "lon": "82.6937181"
    },
    {
        "city": "Татарск",
        "lat": "55.2146167",
        "lon": "75.9739914"
    },
    {
        "city": "Тогучин",
        "lat": "55.2251631",
        "lon": "84.4104118"
    },
    {
        "city": "Черепаново",
        "lat": "54.2206476",
        "lon": "83.3724521"
    },
    {
        "city": "Чулым",
        "lat": "55.0906867",
        "lon": "80.9592508"
    },
    {
        "city": "Исилькуль",
        "lat": "54.9096002",
        "lon": "71.2816284"
    },
    {
        "city": "Калачинск",
        "lat": "55.0598155",
        "lon": "74.5653644"
    },
    {
        "city": "Называевск",
        "lat": "55.5689323",
        "lon": "71.3503426"
    },
    {
        "city": "Омск",
        "lat": "54.9848566",
        "lon": "73.3674517"
    },
    {
        "city": "Тара",
        "lat": "56.9160511",
        "lon": "74.3649194"
    },
    {
        "city": "Тюкалинск",
        "lat": "55.8703415",
        "lon": "72.1954747"
    },
    {
        "city": "Абдулино",
        "lat": "53.6778906",
        "lon": "53.6472483"
    },
    {
        "city": "Бугуруслан",
        "lat": "53.6523728",
        "lon": "52.4326853"
    },
    {
        "city": "Бузулук",
        "lat": "52.7881277",
        "lon": "52.2624877"
    },
    {
        "city": "Гай",
        "lat": "51.4649189",
        "lon": "58.4436875"
    },
    {
        "city": "Кувандык",
        "lat": "51.4783857",
        "lon": "57.3612636"
    },
    {
        "city": "Медногорск",
        "lat": "51.4037617",
        "lon": "57.583163"
    },
    {
        "city": "Новотроицк",
        "lat": "51.1964202",
        "lon": "58.3018192"
    },
    {
        "city": "Оренбург",
        "lat": "51.7875092",
        "lon": "55.1018828"
    },
    {
        "city": "Орск",
        "lat": "51.2294282",
        "lon": "58.4752777"
    },
    {
        "city": "Соль-Илецк",
        "lat": "51.1633736",
        "lon": "54.9896726"
    },
    {
        "city": "Сорочинск",
        "lat": "52.426685",
        "lon": "53.1542745"
    },
    {
        "city": "Ясный",
        "lat": "51.036838",
        "lon": "59.874344"
    },
    {
        "city": "Болхов",
        "lat": "53.4438496",
        "lon": "36.0076833"
    },
    {
        "city": "Дмитровск",
        "lat": "52.5054851",
        "lon": "35.1415009"
    },
    {
        "city": "Ливны",
        "lat": "52.4284558",
        "lon": "37.6039506"
    },
    {
        "city": "Малоархангельск",
        "lat": "52.4002192",
        "lon": "36.5038579"
    },
    {
        "city": "Мценск",
        "lat": "53.2788438",
        "lon": "36.5749105"
    },
    {
        "city": "Новосиль",
        "lat": "52.97454",
        "lon": "37.0437146"
    },
    {
        "city": "Орёл",
        "lat": "52.9671298",
        "lon": "36.0696427"
    },
    {
        "city": "Белинский",
        "lat": "52.9640996",
        "lon": "43.4183212"
    },
    {
        "city": "Городище",
        "lat": "53.2726916",
        "lon": "45.7026142"
    },
    {
        "city": "Заречный",
        "lat": "53.1960836",
        "lon": "45.1689907"
    },
    {
        "city": "Каменка",
        "lat": "53.1855463",
        "lon": "44.0469717"
    },
    {
        "city": "Кузнецк",
        "lat": "53.1130888",
        "lon": "46.605092"
    },
    {
        "city": "Нижний Ломов",
        "lat": "53.5300905",
        "lon": "43.6730217"
    },
    {
        "city": "Никольск",
        "lat": "53.7137496",
        "lon": "46.0799857"
    },
    {
        "city": "Пенза",
        "lat": "53.1753314",
        "lon": "45.0348625"
    },
    {
        "city": "Сердобск",
        "lat": "52.4697595",
        "lon": "44.2122414"
    },
    {
        "city": "Спасск",
        "lat": "53.9271974",
        "lon": "43.1859073"
    },
    {
        "city": "Сурск",
        "lat": "53.0761357",
        "lon": "45.6910796"
    },
    {
        "city": "Александровск",
        "lat": "59.1613221",
        "lon": "57.5763459"
    },
    {
        "city": "Березники",
        "lat": "59.4079923",
        "lon": "56.8039427"
    },
    {
        "city": "Верещагино",
        "lat": "58.0797571",
        "lon": "54.6581309"
    },
    {
        "city": "Горнозаводск",
        "lat": "58.3742532",
        "lon": "58.3231716"
    },
    {
        "city": "Гремячинск",
        "lat": "58.5626082",
        "lon": "57.8520572"
    },
    {
        "city": "Губаха",
        "lat": "58.8371721",
        "lon": "57.554533"
    },
    {
        "city": "Добрянка",
        "lat": "58.469685",
        "lon": "56.4130737"
    },
    {
        "city": "Кизел",
        "lat": "59.0512783",
        "lon": "57.6471028"
    },
    {
        "city": "Красновишерск",
        "lat": "60.3901321",
        "lon": "57.0535682"
    },
    {
        "city": "Краснокамск",
        "lat": "58.0822065",
        "lon": "55.7479936"
    },
    {
        "city": "Кудымкар",
        "lat": "59.0167925",
        "lon": "54.6572508"
    },
    {
        "city": "Кунгур",
        "lat": "57.4283296",
        "lon": "56.9438656"
    },
    {
        "city": "Лысьва",
        "lat": "58.0995875",
        "lon": "57.8086825"
    },
    {
        "city": "Нытва",
        "lat": "57.9336725",
        "lon": "55.3356084"
    },
    {
        "city": "Оса",
        "lat": "57.2889515",
        "lon": "55.4688668"
    },
    {
        "city": "Оханск",
        "lat": "57.7180034",
        "lon": "55.3872469"
    },
    {
        "city": "Очер",
        "lat": "57.8852686",
        "lon": "54.7161091"
    },
    {
        "city": "Пермь",
        "lat": "58.0102583",
        "lon": "56.2342034"
    },
    {
        "city": "Соликамск",
        "lat": "59.6482998",
        "lon": "56.771009"
    },
    {
        "city": "Усолье",
        "lat": "59.4277573",
        "lon": "56.6837872"
    },
    {
        "city": "Чайковский",
        "lat": "56.7781501",
        "lon": "54.1477965"
    },
    {
        "city": "Чердынь",
        "lat": "60.4011933",
        "lon": "56.4799933"
    },
    {
        "city": "Чермоз",
        "lat": "58.7842834",
        "lon": "56.1507138"
    },
    {
        "city": "Чернушка",
        "lat": "56.5160768",
        "lon": "56.0763049"
    },
    {
        "city": "Чусовой",
        "lat": "58.2974596",
        "lon": "57.8193615"
    },
    {
        "city": "Арсеньев",
        "lat": "44.1622031",
        "lon": "133.2696209"
    },
    {
        "city": "Артем",
        "lat": "43.3501675",
        "lon": "132.1596175"
    },
    {
        "city": "Большой Камень",
        "lat": "43.1111742",
        "lon": "132.3480082"
    },
    {
        "city": "Владивосток",
        "lat": "43.1164904",
        "lon": "131.8823937"
    },
    {
        "city": "Дальнегорск",
        "lat": "44.5539457",
        "lon": "135.5662716"
    },
    {
        "city": "Дальнереченск",
        "lat": "45.9308483",
        "lon": "133.7316907"
    },
    {
        "city": "Лесозаводск",
        "lat": "45.4780092",
        "lon": "133.4186199"
    },
    {
        "city": "Находка",
        "lat": "42.8239372",
        "lon": "132.8927361"
    },
    {
        "city": "Партизанск",
        "lat": "43.1280578",
        "lon": "133.1264567"
    },
    {
        "city": "Спасск-Дальний",
        "lat": "44.5901175",
        "lon": "132.8157288"
    },
    {
        "city": "Уссурийск",
        "lat": "43.7971818",
        "lon": "131.9518229"
    },
    {
        "city": "Фокино",
        "lat": "42.9706317",
        "lon": "132.4110196"
    },
    {
        "city": "Великие Луки",
        "lat": "56.332208",
        "lon": "30.5508641"
    },
    {
        "city": "Гдов",
        "lat": "58.7432429",
        "lon": "27.8264809"
    },
    {
        "city": "Дно",
        "lat": "57.826974",
        "lon": "29.9629389"
    },
    {
        "city": "Невель",
        "lat": "56.0201973",
        "lon": "29.9239983"
    },
    {
        "city": "Новоржев",
        "lat": "57.029807",
        "lon": "29.3433083"
    },
    {
        "city": "Новосокольники",
        "lat": "56.3408431",
        "lon": "30.1527573"
    },
    {
        "city": "Опочка",
        "lat": "56.710725",
        "lon": "28.6717519"
    },
    {
        "city": "Остров",
        "lat": "57.3451528",
        "lon": "28.3437593"
    },
    {
        "city": "Печоры",
        "lat": "57.8145817",
        "lon": "27.622259"
    },
    {
        "city": "Порхов",
        "lat": "57.7765219",
        "lon": "29.5436626"
    },
    {
        "city": "Псков",
        "lat": "57.8194415",
        "lon": "28.3317198"
    },
    {
        "city": "Пустошка",
        "lat": "56.3374813",
        "lon": "29.3668055"
    },
    {
        "city": "Пыталово",
        "lat": "57.0637952",
        "lon": "27.9236214"
    },
    {
        "city": "Себеж",
        "lat": "56.2908554",
        "lon": "28.4724326"
    },
    {
        "city": "Азов",
        "lat": "47.1121589",
        "lon": "39.4232555"
    },
    {
        "city": "Аксай",
        "lat": "47.2676314",
        "lon": "39.8756872"
    },
    {
        "city": "Батайск",
        "lat": "47.1383299",
        "lon": "39.7507179"
    },
    {
        "city": "Белая Калитва",
        "lat": "48.1769737",
        "lon": "40.8033529"
    },
    {
        "city": "Волгодонск",
        "lat": "47.5165338",
        "lon": "42.1984951"
    },
    {
        "city": "Гуково",
        "lat": "48.0448904",
        "lon": "39.9484672"
    },
    {
        "city": "Донецк",
        "lat": "48.3350706",
        "lon": "39.945891"
    },
    {
        "city": "Зверево",
        "lat": "48.0435487",
        "lon": "40.1265822"
    },
    {
        "city": "Зерноград",
        "lat": "46.8495958",
        "lon": "40.312837"
    },
    {
        "city": "Каменск-Шахтинский",
        "lat": "48.3205326",
        "lon": "40.2689583"
    },
    {
        "city": "Константиновск",
        "lat": "47.5773717",
        "lon": "41.0967445"
    },
    {
        "city": "Красный Сулин",
        "lat": "47.8831311",
        "lon": "40.0781298"
    },
    {
        "city": "Миллерово",
        "lat": "48.9260077",
        "lon": "40.3984087"
    },
    {
        "city": "Морозовск",
        "lat": "48.3511807",
        "lon": "41.8309225"
    },
    {
        "city": "Новочеркасск",
        "lat": "47.411919",
        "lon": "40.1042098"
    },
    {
        "city": "Новошахтинск",
        "lat": "47.757773",
        "lon": "39.9363697"
    },
    {
        "city": "Пролетарск",
        "lat": "46.7038963",
        "lon": "41.727594"
    },
    {
        "city": "Ростов-на-Дону",
        "lat": "47.2224566",
        "lon": "39.718803"
    },
    {
        "city": "Сальск",
        "lat": "46.4752095",
        "lon": "41.5410415"
    },
    {
        "city": "Семикаракорск",
        "lat": "47.5177337",
        "lon": "40.8114167"
    },
    {
        "city": "Таганрог",
        "lat": "47.2094917",
        "lon": "38.9350989"
    },
    {
        "city": "Цимлянск",
        "lat": "47.6477448",
        "lon": "42.0931505"
    },
    {
        "city": "Шахты",
        "lat": "47.7085287",
        "lon": "40.2159846"
    },
    {
        "city": "Касимов",
        "lat": "54.9373475",
        "lon": "41.3913211"
    },
    {
        "city": "Кораблино",
        "lat": "53.9246659",
        "lon": "40.0227745"
    },
    {
        "city": "Михайлов",
        "lat": "54.2297402",
        "lon": "39.0091481"
    },
    {
        "city": "Новомичуринск",
        "lat": "54.0376572",
        "lon": "39.74654"
    },
    {
        "city": "Рыбное",
        "lat": "54.7256164",
        "lon": "39.5134398"
    },
    {
        "city": "Ряжск",
        "lat": "53.7067584",
        "lon": "40.0522274"
    },
    {
        "city": "Рязань",
        "lat": "54.6254445",
        "lon": "39.7358609"
    },
    {
        "city": "Сасово",
        "lat": "54.3508885",
        "lon": "41.9117422"
    },
    {
        "city": "Скопин",
        "lat": "53.823543",
        "lon": "39.5492421"
    },
    {
        "city": "Спас-Клепики",
        "lat": "55.1291721",
        "lon": "40.1745338"
    },
    {
        "city": "Спасск-Рязанский",
        "lat": "54.4070719",
        "lon": "40.3763426"
    },
    {
        "city": "Шацк",
        "lat": "54.0287312",
        "lon": "41.7181803"
    },
    {
        "city": "Жигулевск",
        "lat": "53.4011981",
        "lon": "49.4945176"
    },
    {
        "city": "Кинель",
        "lat": "53.2210298",
        "lon": "50.6343776"
    },
    {
        "city": "Нефтегорск",
        "lat": "52.7972914",
        "lon": "51.1637392"
    },
    {
        "city": "Новокуйбышевск",
        "lat": "53.0994565",
        "lon": "49.9477382"
    },
    {
        "city": "Октябрьск",
        "lat": "53.1640488",
        "lon": "48.670762"
    },
    {
        "city": "Отрадный",
        "lat": "53.3800848",
        "lon": "51.3438605"
    },
    {
        "city": "Похвистнево",
        "lat": "53.6498299",
        "lon": "52.1235156"
    },
    {
        "city": "Самара",
        "lat": "53.1950306",
        "lon": "50.1069518"
    },
    {
        "city": "Сызрань",
        "lat": "53.1558674",
        "lon": "48.4744629"
    },
    {
        "city": "Тольятти",
        "lat": "53.5205348",
        "lon": "49.3894028"
    },
    {
        "city": "Чапаевск",
        "lat": "52.928961",
        "lon": "49.8673269"
    },
    {
        "city": "",
        "lat": "59.9391313",
        "lon": "30.3159004"
    },
    {
        "city": "Аркадак",
        "lat": "51.938831",
        "lon": "43.4999221"
    },
    {
        "city": "Аткарск",
        "lat": "51.8736062",
        "lon": "45.0003247"
    },
    {
        "city": "Балаково",
        "lat": "52.0224231",
        "lon": "47.7827765"
    },
    {
        "city": "Балашов",
        "lat": "51.5388697",
        "lon": "43.1839757"
    },
    {
        "city": "Вольск",
        "lat": "52.0459865",
        "lon": "47.3873595"
    },
    {
        "city": "Ершов",
        "lat": "51.3508505",
        "lon": "48.2762226"
    },
    {
        "city": "Калининск",
        "lat": "51.4993591",
        "lon": "44.4710435"
    },
    {
        "city": "Красноармейск",
        "lat": "51.023541",
        "lon": "45.695044"
    },
    {
        "city": "Красный Кут",
        "lat": "50.9598317",
        "lon": "46.9712016"
    },
    {
        "city": "Маркс",
        "lat": "51.7133337",
        "lon": "46.7400339"
    },
    {
        "city": "Новоузенск",
        "lat": "50.455199",
        "lon": "48.1413153"
    },
    {
        "city": "Петровск",
        "lat": "52.3094237",
        "lon": "45.3851877"
    },
    {
        "city": "Пугачев",
        "lat": "52.0159921",
        "lon": "48.7972223"
    },
    {
        "city": "Ртищево",
        "lat": "52.2616271",
        "lon": "43.7842248"
    },
    {
        "city": "Саратов",
        "lat": "51.533557",
        "lon": "46.034257"
    },
    {
        "city": "Хвалынск",
        "lat": "52.4951572",
        "lon": "48.1045771"
    },
    {
        "city": "Шиханы",
        "lat": "52.1147391",
        "lon": "47.2023118"
    },
    {
        "city": "Энгельс",
        "lat": "51.4854003",
        "lon": "46.126722"
    },
    {
        "city": "Александровск-Сахалинский",
        "lat": "50.8974378",
        "lon": "142.1578559"
    },
    {
        "city": "Анива",
        "lat": "46.713152",
        "lon": "142.5265804"
    },
    {
        "city": "Долинск",
        "lat": "47.3255783",
        "lon": "142.7945071"
    },
    {
        "city": "Корсаков",
        "lat": "46.6324545",
        "lon": "142.799445"
    },
    {
        "city": "Курильск",
        "lat": "45.2270954",
        "lon": "147.8796323"
    },
    {
        "city": "Макаров",
        "lat": "48.6236334",
        "lon": "142.7803205"
    },
    {
        "city": "Невельск",
        "lat": "46.6526899",
        "lon": "141.8630725"
    },
    {
        "city": "Оха",
        "lat": "53.5867839",
        "lon": "142.9412411"
    },
    {
        "city": "Поронайск",
        "lat": "49.238866",
        "lon": "143.1008333"
    },
    {
        "city": "Северо-Курильск",
        "lat": "50.6730577",
        "lon": "156.1282211"
    },
    {
        "city": "Томари",
        "lat": "47.7620108",
        "lon": "142.0615837"
    },
    {
        "city": "Углегорск",
        "lat": "49.0815774",
        "lon": "142.0692639"
    },
    {
        "city": "Холмск",
        "lat": "47.0408423",
        "lon": "142.041688"
    },
    {
        "city": "Южно-Сахалинск",
        "lat": "46.9591631",
        "lon": "142.737976"
    },
    {
        "city": "Алапаевск",
        "lat": "57.8475571",
        "lon": "61.6693817"
    },
    {
        "city": "Арамиль",
        "lat": "56.694632",
        "lon": "60.8343125"
    },
    {
        "city": "Артемовский",
        "lat": "57.3384177",
        "lon": "61.8947443"
    },
    {
        "city": "Асбест",
        "lat": "57.0052277",
        "lon": "61.4581156"
    },
    {
        "city": "Березовский",
        "lat": "56.9095924",
        "lon": "60.8180907"
    },
    {
        "city": "Богданович",
        "lat": "56.7764795",
        "lon": "62.0463679"
    },
    {
        "city": "Верхний Тагил",
        "lat": "57.3763758",
        "lon": "59.9517653"
    },
    {
        "city": "Верхняя Пышма",
        "lat": "56.9758903",
        "lon": "60.5650383"
    },
    {
        "city": "Верхняя Салда",
        "lat": "58.0465803",
        "lon": "60.5560164"
    },
    {
        "city": "Верхняя Тура",
        "lat": "58.3643685",
        "lon": "59.8265235"
    },
    {
        "city": "Верхотурье",
        "lat": "58.8622073",
        "lon": "60.8103945"
    },
    {
        "city": "Волчанск",
        "lat": "59.9351707",
        "lon": "60.0798618"
    },
    {
        "city": "Дегтярск",
        "lat": "56.7048206",
        "lon": "60.079138"
    },
    {
        "city": "Екатеринбург",
        "lat": "56.8385216",
        "lon": "60.6054911"
    },
    {
        "city": "Заречный",
        "lat": "56.8102931",
        "lon": "61.3380029"
    },
    {
        "city": "Ивдель",
        "lat": "60.6944496",
        "lon": "60.4245069"
    },
    {
        "city": "Ирбит",
        "lat": "57.6838362",
        "lon": "63.057675"
    },
    {
        "city": "Каменск-Уральский",
        "lat": "56.414962",
        "lon": "61.9188674"
    },
    {
        "city": "Камышлов",
        "lat": "56.8465034",
        "lon": "62.7119766"
    },
    {
        "city": "Карпинск",
        "lat": "59.7665925",
        "lon": "60.0011703"
    },
    {
        "city": "Качканар",
        "lat": "58.7051762",
        "lon": "59.4839155"
    },
    {
        "city": "Кировград",
        "lat": "57.4299433",
        "lon": "60.0624051"
    },
    {
        "city": "Краснотурьинск",
        "lat": "59.7636635",
        "lon": "60.1934525"
    },
    {
        "city": "Красноуральск",
        "lat": "58.348651",
        "lon": "60.0408764"
    },
    {
        "city": "Красноуфимск",
        "lat": "56.612387",
        "lon": "57.7636637"
    },
    {
        "city": "Кушва",
        "lat": "58.2826013",
        "lon": "59.7645766"
    },
    {
        "city": "Лесной",
        "lat": "58.6348516",
        "lon": "59.7981565"
    },
    {
        "city": "Михайловск",
        "lat": "56.4370039",
        "lon": "59.1137316"
    },
    {
        "city": "Невьянск",
        "lat": "57.49131",
        "lon": "60.2183429"
    },
    {
        "city": "Нижние Серги",
        "lat": "56.6544959",
        "lon": "59.2953035"
    },
    {
        "city": "Нижний Тагил",
        "lat": "57.910126",
        "lon": "59.9812853"
    },
    {
        "city": "Нижняя Салда",
        "lat": "58.0748272",
        "lon": "60.7025418"
    },
    {
        "city": "Нижняя Тура",
        "lat": "58.6309267",
        "lon": "59.8520344"
    },
    {
        "city": "Новая Ляля",
        "lat": "59.0538977",
        "lon": "60.5944825"
    },
    {
        "city": "Новоуральск",
        "lat": "57.2472567",
        "lon": "60.0956714"
    },
    {
        "city": "Первоуральск",
        "lat": "56.9080085",
        "lon": "59.942926"
    },
    {
        "city": "Полевской",
        "lat": "56.4956952",
        "lon": "60.2365298"
    },
    {
        "city": "Ревда",
        "lat": "56.7986319",
        "lon": "59.9071591"
    },
    {
        "city": "Реж",
        "lat": "57.3717477",
        "lon": "61.3833842"
    },
    {
        "city": "Североуральск",
        "lat": "60.1533109",
        "lon": "59.9525245"
    },
    {
        "city": "Серов",
        "lat": "59.6047724",
        "lon": "60.5753882"
    },
    {
        "city": "Среднеуральск",
        "lat": "56.9918901",
        "lon": "60.4771018"
    },
    {
        "city": "Сухой Лог",
        "lat": "56.9076193",
        "lon": "62.0358093"
    },
    {
        "city": "Сысерть",
        "lat": "56.5005715",
        "lon": "60.8190003"
    },
    {
        "city": "Тавда",
        "lat": "58.0434672",
        "lon": "65.274217"
    },
    {
        "city": "Талица",
        "lat": "57.0122687",
        "lon": "63.7320757"
    },
    {
        "city": "Туринск",
        "lat": "58.0393524",
        "lon": "63.6981973"
    },
    {
        "city": "",
        "lat": "44.6167013",
        "lon": "33.525355"
    },
    {
        "city": "Алагир",
        "lat": "43.0417684",
        "lon": "44.2199715"
    },
    {
        "city": "Ардон",
        "lat": "43.1755152",
        "lon": "44.2955775"
    },
    {
        "city": "Беслан",
        "lat": "43.1937529",
        "lon": "44.5338707"
    },
    {
        "city": "Владикавказ",
        "lat": "43.020588",
        "lon": "44.6819182"
    },
    {
        "city": "Дигора",
        "lat": "43.1567628",
        "lon": "44.1549483"
    },
    {
        "city": "Моздок",
        "lat": "43.7471342",
        "lon": "44.6569607"
    },
    {
        "city": "Велиж",
        "lat": "55.6057916",
        "lon": "31.1856206"
    },
    {
        "city": "Вязьма",
        "lat": "55.2116983",
        "lon": "34.2951663"
    },
    {
        "city": "Гагарин",
        "lat": "55.5525228",
        "lon": "34.9950502"
    },
    {
        "city": "Демидов",
        "lat": "55.2682105",
        "lon": "31.5062809"
    },
    {
        "city": "Десногорск",
        "lat": "54.146457",
        "lon": "33.2833222"
    },
    {
        "city": "Дорогобуж",
        "lat": "54.9136959",
        "lon": "33.3023162"
    },
    {
        "city": "Духовщина",
        "lat": "55.1950257",
        "lon": "32.401252"
    },
    {
        "city": "Ельня",
        "lat": "54.5837795",
        "lon": "33.1749867"
    },
    {
        "city": "Починок",
        "lat": "54.406244",
        "lon": "32.4398039"
    },
    {
        "city": "Рославль",
        "lat": "53.9449558",
        "lon": "32.8480258"
    },
    {
        "city": "Рудня",
        "lat": "54.9441093",
        "lon": "31.0794806"
    },
    {
        "city": "Сафоново",
        "lat": "55.1199661",
        "lon": "33.2336988"
    },
    {
        "city": "Смоленск",
        "lat": "54.782635",
        "lon": "32.045251"
    },
    {
        "city": "Сычевка",
        "lat": "55.8308821",
        "lon": "34.2778793"
    },
    {
        "city": "Ярцево",
        "lat": "55.0564732",
        "lon": "32.6902302"
    },
    {
        "city": "Благодарный",
        "lat": "45.0989782",
        "lon": "43.4306455"
    },
    {
        "city": "Буденновск",
        "lat": "44.7816067",
        "lon": "44.1650339"
    },
    {
        "city": "Георгиевск",
        "lat": "44.1485694",
        "lon": "43.4739851"
    },
    {
        "city": "Ессентуки",
        "lat": "44.0446186",
        "lon": "42.8588653"
    },
    {
        "city": "Железноводск",
        "lat": "44.1320568",
        "lon": "43.0306461"
    },
    {
        "city": "Зеленокумск",
        "lat": "44.4032668",
        "lon": "43.8841877"
    },
    {
        "city": "Изобильный",
        "lat": "45.3684296",
        "lon": "41.708702"
    },
    {
        "city": "Ипатово",
        "lat": "45.7181751",
        "lon": "42.8970206"
    },
    {
        "city": "Кисловодск",
        "lat": "43.9052044",
        "lon": "42.7168721"
    },
    {
        "city": "Лермонтов",
        "lat": "44.1054107",
        "lon": "42.973135"
    },
    {
        "city": "Минеральные Воды",
        "lat": "44.2087273",
        "lon": "43.138408"
    },
    {
        "city": "Михайловск",
        "lat": "45.1297323",
        "lon": "42.0288443"
    },
    {
        "city": "Невинномысск",
        "lat": "44.6226031",
        "lon": "41.9476723"
    },
    {
        "city": "Нефтекумск",
        "lat": "44.7544552",
        "lon": "44.9865347"
    },
    {
        "city": "Новоалександровск",
        "lat": "45.4932733",
        "lon": "41.2153996"
    },
    {
        "city": "Новопавловск",
        "lat": "43.9617097",
        "lon": "43.6342865"
    },
    {
        "city": "Пятигорск",
        "lat": "44.041091",
        "lon": "43.0661553"
    },
    {
        "city": "Светлоград",
        "lat": "45.328659",
        "lon": "42.8565714"
    },
    {
        "city": "Ставрополь",
        "lat": "45.044516",
        "lon": "41.9689655"
    },
    {
        "city": "Жердевка",
        "lat": "51.8422192",
        "lon": "41.4617687"
    },
    {
        "city": "Кирсанов",
        "lat": "52.6506335",
        "lon": "42.7286445"
    },
    {
        "city": "Котовск",
        "lat": "52.5924489",
        "lon": "41.5101237"
    },
    {
        "city": "Мичуринск",
        "lat": "52.8912389",
        "lon": "40.5104443"
    },
    {
        "city": "Моршанск",
        "lat": "53.4436216",
        "lon": "41.8115478"
    },
    {
        "city": "Рассказово",
        "lat": "52.6538833",
        "lon": "41.874285"
    },
    {
        "city": "Тамбов",
        "lat": "52.7213154",
        "lon": "41.452264"
    },
    {
        "city": "Уварово",
        "lat": "51.9767841",
        "lon": "42.2529799"
    },
    {
        "city": "Агрыз",
        "lat": "56.5232864",
        "lon": "52.9943775"
    },
    {
        "city": "Азнакаево",
        "lat": "54.8598642",
        "lon": "53.0745527"
    },
    {
        "city": "Альметьевск",
        "lat": "54.9014619",
        "lon": "52.2970467"
    },
    {
        "city": "Арск",
        "lat": "56.0912567",
        "lon": "49.877067"
    },
    {
        "city": "Бавлы",
        "lat": "54.4062891",
        "lon": "53.2458065"
    },
    {
        "city": "Москва",
        "lat": "55.7522200",
        "lon": "37.6155600"
    },
    {
        "city": "Севастополь",
        "lat": "44.5888",
        "lon": "33.5224"
    },
    {
        "city": "Болгар",
        "lat": "54.974891",
        "lon": "49.0303882"
    },
    {
        "city": "Бугульма",
        "lat": "54.5363495",
        "lon": "52.7895849"
    },
    {
        "city": "Буинск",
        "lat": "54.9641538",
        "lon": "48.2901209"
    },
    {
        "city": "Елабуга",
        "lat": "55.7567107",
        "lon": "52.0543794"
    },
    {
        "city": "Заинск",
        "lat": "55.299053",
        "lon": "52.0062972"
    },
    {
        "city": "Зеленодольск",
        "lat": "55.8466651",
        "lon": "48.5010954"
    },
    {
        "city": "Иннополис",
        "lat": "55.7521699",
        "lon": "48.7446846"
    },
    {
        "city": "Казань",
        "lat": "55.7943584",
        "lon": "49.1114975"
    },
    {
        "city": "Кукмор",
        "lat": "56.1861392",
        "lon": "50.8970238"
    },
    {
        "city": "Лаишево",
        "lat": "55.4042867",
        "lon": "49.5499838"
    },
    {
        "city": "Лениногорск",
        "lat": "54.5967034",
        "lon": "52.4431906"
    },
    {
        "city": "Мамадыш",
        "lat": "55.7150413",
        "lon": "51.4129016"
    },
    {
        "city": "Менделеевск",
        "lat": "55.895169",
        "lon": "52.3143347"
    },
    {
        "city": "Мензелинск",
        "lat": "55.7270698",
        "lon": "53.1003968"
    },
    {
        "city": "Набережные Челны",
        "lat": "55.7434619",
        "lon": "52.3959165"
    },
    {
        "city": "Нижнекамск",
        "lat": "55.6313609",
        "lon": "51.8144669"
    },
    {
        "city": "Нурлат",
        "lat": "54.4281461",
        "lon": "50.8049337"
    },
    {
        "city": "Тетюши",
        "lat": "54.936516",
        "lon": "48.8314533"
    },
    {
        "city": "Чистополь",
        "lat": "55.3699139",
        "lon": "50.6285784"
    },
    {
        "city": "Андреаполь",
        "lat": "56.6506724",
        "lon": "32.2620163"
    },
    {
        "city": "Бежецк",
        "lat": "57.7860089",
        "lon": "36.6904983"
    },
    {
        "city": "Белый",
        "lat": "55.8339056",
        "lon": "32.9389741"
    },
    {
        "city": "Бологое",
        "lat": "57.8855767",
        "lon": "34.0537771"
    },
    {
        "city": "Весьегонск",
        "lat": "58.6582598",
        "lon": "37.2567558"
    },
    {
        "city": "Вышний Волочек",
        "lat": "57.568302",
        "lon": "34.5404016"
    },
    {
        "city": "Западная Двина",
        "lat": "56.2566492",
        "lon": "32.0805315"
    },
    {
        "city": "Зубцов",
        "lat": "56.1760868",
        "lon": "34.5825515"
    },
    {
        "city": "Калязин",
        "lat": "57.2579478",
        "lon": "37.7819693"
    },
    {
        "city": "Кашин",
        "lat": "57.360194",
        "lon": "37.6119436"
    },
    {
        "city": "Кимры",
        "lat": "56.8733213",
        "lon": "37.3556605"
    },
    {
        "city": "Конаково",
        "lat": "56.7275204",
        "lon": "36.8012716"
    },
    {
        "city": "Красный Холм",
        "lat": "58.0571446",
        "lon": "37.1126156"
    },
    {
        "city": "Кувшиново",
        "lat": "57.0265168",
        "lon": "34.1676009"
    },
    {
        "city": "Лихославль",
        "lat": "57.1221304",
        "lon": "35.4667605"
    },
    {
        "city": "Нелидово",
        "lat": "56.2232566",
        "lon": "32.7767459"
    },
    {
        "city": "Осташков",
        "lat": "57.1456744",
        "lon": "33.1115372"
    },
    {
        "city": "Ржев",
        "lat": "56.262881",
        "lon": "34.3291002"
    },
    {
        "city": "Старица",
        "lat": "56.514876",
        "lon": "34.9336396"
    },
    {
        "city": "Тверь",
        "lat": "56.8586059",
        "lon": "35.9116761"
    },
    {
        "city": "Торжок",
        "lat": "57.04133",
        "lon": "34.9602344"
    },
    {
        "city": "Торопец",
        "lat": "56.5012188",
        "lon": "31.6355466"
    },
    {
        "city": "Удомля",
        "lat": "57.8787314",
        "lon": "35.0167348"
    },
    {
        "city": "Асино",
        "lat": "56.9907085",
        "lon": "86.1765257"
    },
    {
        "city": "Кедровый",
        "lat": "57.561869",
        "lon": "79.5677821"
    },
    {
        "city": "Колпашево",
        "lat": "58.3114253",
        "lon": "82.9025829"
    },
    {
        "city": "Северск",
        "lat": "56.6031285",
        "lon": "84.8809926"
    },
    {
        "city": "Стрежевой",
        "lat": "60.732895",
        "lon": "77.604122"
    },
    {
        "city": "Томск",
        "lat": "56.4845804",
        "lon": "84.9481582"
    },
    {
        "city": "Алексин",
        "lat": "54.5083349",
        "lon": "37.0478067"
    },
    {
        "city": "Белев",
        "lat": "53.8114179",
        "lon": "36.1382247"
    },
    {
        "city": "Богородицк",
        "lat": "53.7701014",
        "lon": "38.1225152"
    },
    {
        "city": "Болохово",
        "lat": "54.0820349",
        "lon": "37.826724"
    },
    {
        "city": "Венев",
        "lat": "54.3542315",
        "lon": "38.2642236"
    },
    {
        "city": "Донской",
        "lat": "53.9678944",
        "lon": "38.3371824"
    },
    {
        "city": "Ефремов",
        "lat": "53.1464766",
        "lon": "38.0921657"
    },
    {
        "city": "Кимовск",
        "lat": "53.9698378",
        "lon": "38.5380808"
    },
    {
        "city": "Киреевск",
        "lat": "53.9319555",
        "lon": "37.9220351"
    },
    {
        "city": "Липки",
        "lat": "53.9417551",
        "lon": "37.7020148"
    },
    {
        "city": "Новомосковск",
        "lat": "54.0109075",
        "lon": "38.2914024"
    },
    {
        "city": "Плавск",
        "lat": "53.7096415",
        "lon": "37.2862352"
    },
    {
        "city": "Советск",
        "lat": "53.9338874",
        "lon": "37.6316141"
    },
    {
        "city": "Суворов",
        "lat": "54.1343585",
        "lon": "36.4807419"
    },
    {
        "city": "Тула",
        "lat": "54.1920559",
        "lon": "37.6153842"
    },
    {
        "city": "Узловая",
        "lat": "53.9730452",
        "lon": "38.1763201"
    },
    {
        "city": "Чекалин",
        "lat": "54.0984438",
        "lon": "36.2474142"
    },
    {
        "city": "Щекино",
        "lat": "54.0020652",
        "lon": "37.5176288"
    },
    {
        "city": "Ясногорск",
        "lat": "54.4795484",
        "lon": "37.6896048"
    },
    {
        "city": "Ак-Довурак",
        "lat": "51.178452",
        "lon": "90.5985129"
    },
    {
        "city": "Кызыл",
        "lat": "51.7191047",
        "lon": "94.4376882"
    },
    {
        "city": "Туран",
        "lat": "52.1449619",
        "lon": "93.9173396"
    },
    {
        "city": "Чадан",
        "lat": "51.2844502",
        "lon": "91.5788609"
    },
    {
        "city": "Шагонар",
        "lat": "51.5346393",
        "lon": "92.9199675"
    },
    {
        "city": "Заводоуковск",
        "lat": "56.5027463",
        "lon": "66.5513613"
    },
    {
        "city": "Ишим",
        "lat": "56.1104858",
        "lon": "69.4795776"
    },
    {
        "city": "Тобольск",
        "lat": "58.2017299",
        "lon": "68.2538558"
    },
    {
        "city": "Тюмень",
        "lat": "57.1529744",
        "lon": "65.5344099"
    },
    {
        "city": "Ялуторовск",
        "lat": "56.6547289",
        "lon": "66.3122992"
    },
    {
        "city": "Воткинск",
        "lat": "57.0518149",
        "lon": "53.9873096"
    },
    {
        "city": "Глазов",
        "lat": "58.1359233",
        "lon": "52.6635038"
    },
    {
        "city": "Ижевск",
        "lat": "56.852738",
        "lon": "53.2114896"
    },
    {
        "city": "Камбарка",
        "lat": "56.2659916",
        "lon": "54.193374"
    },
    {
        "city": "Можга",
        "lat": "56.4427774",
        "lon": "52.2137886"
    },
    {
        "city": "Сарапул",
        "lat": "56.4615767",
        "lon": "53.8037657"
    },
    {
        "city": "Барыш",
        "lat": "53.6533992",
        "lon": "47.1181134"
    },
    {
        "city": "Димитровград",
        "lat": "54.2167926",
        "lon": "49.6262585"
    },
    {
        "city": "Инза",
        "lat": "53.8549647",
        "lon": "46.3533459"
    },
    {
        "city": "Новоульяновск",
        "lat": "54.1447956",
        "lon": "48.3910789"
    },
    {
        "city": "Сенгилей",
        "lat": "53.958964",
        "lon": "48.7768269"
    },
    {
        "city": "Ульяновск",
        "lat": "54.3079415",
        "lon": "48.3748487"
    },
    {
        "city": "Амурск",
        "lat": "50.2344147",
        "lon": "136.8792444"
    },
    {
        "city": "Бикин",
        "lat": "46.8185743",
        "lon": "134.2550718"
    },
    {
        "city": "Вяземский",
        "lat": "47.5353379",
        "lon": "134.7553856"
    },
    {
        "city": "Комсомольск-на-Амуре",
        "lat": "50.5498936",
        "lon": "137.0079408"
    },
    {
        "city": "Николаевск-на-Амуре",
        "lat": "53.1460657",
        "lon": "140.7111367"
    },
    {
        "city": "Советская Гавань",
        "lat": "48.9664966",
        "lon": "140.285174"
    },
    {
        "city": "Хабаровск",
        "lat": "48.4647258",
        "lon": "135.0598942"
    },
    {
        "city": "Абаза",
        "lat": "52.6516647",
        "lon": "90.0885686"
    },
    {
        "city": "Абакан",
        "lat": "53.7223325",
        "lon": "91.4436721"
    },
    {
        "city": "Саяногорск",
        "lat": "53.1008083",
        "lon": "91.4122454"
    },